store_key,storename,address,telno,region_name,province_name,city_muni_name,latitude,longitude
 2,BF Homes,"Pres. Avenue cor. Aguirre St., BF Homes, Paranaque",8425445,NCR - National Capital Region,"NCR, FOURTH DISTRICT",CITY OF PARAÑAQUE,14.4486,121.03
 3,Libertad,Libertad St. cor. Harrison St. Pasay City,7998456,NCR - National Capital Region,"NCR, FOURTH DISTRICT",PASAY CITY,14.5462,120.994
 4,Naghatan,"Nagtahan cor. J.P.  Laurel, Sta. Mesa Mla.",7150963,NCR - National Capital Region,"NCR, CITY OF MANILA, FIRST DISTRICT",SAMPALOC,14.6004,120.999
 7,Quiapo,Beside Quiapo Church Quezon Blvd. Manila,7336051,NCR - National Capital Region,"NCR, CITY OF MANILA, FIRST DISTRICT",QUIAPO,14.599,120.984
 8,Faura,Adriatico St. cor. P. Faura Ermita Manila,5257595,NCR - National Capital Region,"NCR, CITY OF MANILA, FIRST DISTRICT",ERMITA,14.5776,120.982
 10,Munoz,"Roosevelt Ave. Nr. Cor. EDSA, Quezon City",3737577,NCR - National Capital Region,"NCR, SECOND DISTRICT",QUEZON CITY,14.6571,121.019
 12,Roces,"A. Roces Cor. Quezon Ave., Quezon City",2638473,NCR - National Capital Region,"NCR, SECOND DISTRICT",QUEZON CITY,14.6332,121.02
 17,Buendia,Buendia Ave. Nr Cor Taft Ave. Pasay City,5512408,NCR - National Capital Region,"NCR, FOURTH DISTRICT",PASAY CITY,14.554,120.998
 20,Boni,"Boni Ave. Cor. EDSA, Mandaluyong City",5313156,NCR - National Capital Region,"NCR, SECOND DISTRICT",CITY OF MANDALUYONG,14.5728,121.047
 22,Retiro,"Retiro St. Cor. Dimasalang St., Sampaloc Mla.",7426480,NCR - National Capital Region,"NCR, CITY OF MANILA, FIRST DISTRICT",SAMPALOC,14.6241,120.989
 24,Paco 1,Pedro Gil St. Cor. Paz St. Paco Manila,5638811,NCR - National Capital Region,"NCR, CITY OF MANILA, FIRST DISTRICT",PACO,14.5786,120.995
 30,Burgos,"Libertad St. Cor.  Burgos St., Pasay City",8332508,NCR - National Capital Region,"NCR, FOURTH DISTRICT",PASAY CITY,14.5481,121.001
 31,Barangka,"Boni Ave. Cor. Barranca Drive, Mandaluyong City",6544297,NCR - National Capital Region,"NCR, SECOND DISTRICT",CITY OF MANDALUYONG,14.5757,121.041
 32,Maypajo,"J.P. Rizal Cor. Mabini St. Maypajo, Caloocan City",2889890,NCR - National Capital Region,"NCR, THIRD DISTRICT",CALOOCAN CITY,14.6379,120.976
 33,Dapitan,"Maceda St. Cor. Dapitan St., Sampaloc Mla.",7126042,NCR - National Capital Region,"NCR, CITY OF MANILA, FIRST DISTRICT",SAMPALOC,14.6177,120.995
 35,Pasig Church,"Caruncho Ave. Cor. Sixto Antonio St., Pasig City",6412137,NCR - National Capital Region,"NCR, SECOND DISTRICT",CITY OF PASIG,14.561,121.077
 37,Novaliches 1,"Gen. Luis St. Cor. Austria St., Nova. Q.C.",9373516,NCR - National Capital Region,"NCR, SECOND DISTRICT",QUEZON CITY,14.7219,121.039
 39,MCU,EDSA Cor. Asucion St. Caloocan City,3636279,NCR - National Capital Region,"NCR, THIRD DISTRICT",CALOOCAN CITY,14.6574,120.988
 43,Malibay,"EDSA Cor. C. Jose St., Malibay Pasay City",8537299,NCR - National Capital Region,"NCR, FOURTH DISTRICT",PASAY CITY,14.5385,121.011
 44,Bacoor,Talaba Rd. Cor. Aguinaldo H-Way Bacoor Cavite,9703946,REGION IV-A (CALABARZON),CAVITE,BACOOR,14.462,120.963
 45,Gagalangin,"Juan Luna Cor. Pampanga St. Gagalangin, Mla.",2538025,NCR - National Capital Region,"NCR, CITY OF MANILA, FIRST DISTRICT",TONDO I / II,14.629,120.974
 46,Pandacan,"Jesus Cor. Laborers  St., Pandacan Manila",5641954,NCR - National Capital Region,"NCR, CITY OF MANILA, FIRST DISTRICT",PANDACAN,14.5927,121.004
 47,Singalong,Singalong St. Cor. San Andres St. Manila,5369004,NCR - National Capital Region,"NCR, CITY OF MANILA, FIRST DISTRICT",PACO,14.5715,120.995
 54,Muntinlupa 1,"Rizal Ave., Nr Cor. National H-Way Muntinlupa",8611725,NCR - National Capital Region,"NCR, FOURTH DISTRICT",CITY OF MUNTINLUPA,14.3891,121.045
 59,Revilla,EDSA Cor. C. Revilla St. Pasay City,8327252,NCR - National Capital Region,"NCR, FOURTH DISTRICT",PASAY CITY,14.5373,121.001
 60,Cainta Junction,A. Bonifacio St. Cor. Ortigas Extn. Cainta Rizal,6567253,REGION IV-A (CALABARZON),RIZAL,CAINTA,14.5862,121.115
 63,Guadalupe,EDSA Nr Cor R. Magsaysay Guadalupe Mkt. City,7286954,NCR - National Capital Region,"NCR, FOURTH DISTRICT",CITY OF MAKATI,14.5652,121.045
 64,Masinag,"Marcos H-Way Cor. Sumulong H-Way, Antipolo",6451151,REGION IV-A (CALABARZON),RIZAL,CITY OF ANTIPOLO,14.6257,121.125
 65,Road 8,"Road 8 Cor. Visayas Ave., Proj. 6 Q.C.",4540004,NCR - National Capital Region,"NCR, SECOND DISTRICT",QUEZON CITY,14.6628,121.044
 66,MH Del Pilar,"A. Flores St. Cor. M.H. Del Pilar, Ermita Mla",4848117,NCR - National Capital Region,"NCR, CITY OF MANILA, FIRST DISTRICT",ERMITA,14.5788,120.979
 67,St. James,TSora Ave. Cor. Mindanao Ave Q.C.,4540050,NCR - National Capital Region,"NCR, SECOND DISTRICT",QUEZON CITY,14.6771,121.032
 68,Murphy,15TH Ave. Cor Liberty Ave. Murphy Cubao Q.C.,9138281,NCR - National Capital Region,"NCR, SECOND DISTRICT",CITY OF PASIG,14.615,121.062
 69,PCU,Pedro Gil Cor. Leon Guinto St. Malate Mla.,5361661,NCR - National Capital Region,"NCR, CITY OF MANILA, FIRST DISTRICT",MALATE,14.5764,120.989
 71,A Bonifacio,A. Bonifacio Cor Shaw Blvd. Mandaluyong City,5324307,NCR - National Capital Region,"NCR, SECOND DISTRICT",CITY OF MANDALUYONG,14.5896,121.035
 72,Calamba,National HiWay Cor. JP Rizal St. Calamba Laguna,5455694,REGION IV-A (CALABARZON),LAGUNA,CITY OF CALAMBA,14.2055,121.156
 74,Canaynay,Dr. A. Santos Avenue Cor Canaynay Ave. Pque.,8254254,NCR - National Capital Region,"NCR, FOURTH DISTRICT",CITY OF PARAÑAQUE,14.475,121.001
 75,Antipolo Church,"Oliveros St. Cor Masangkay, Antipolo Rizal",6508997,REGION IV-A (CALABARZON),RIZAL,CITY OF ANTIPOLO,14.5878,121.175
 76,Pasig Rotonda,"Pasig Blvd. Cor Sixto Antonio, Pasig City",6410593,NCR - National Capital Region,"NCR, SECOND DISTRICT",CITY OF PASIG,14.5661,121.076
 78,Bruger,National Rd. Bruger St. Putatan Muntinlupa,8611724,NCR - National Capital Region,"NCR, FOURTH DISTRICT",CITY OF MUNTINLUPA,14.3946,121.045
 80,Marcelo,West Service Rd. Cor Marcelo Ave. Paranque,8210988,NCR - National Capital Region,"NCR, FOURTH DISTRICT",CITY OF PARAÑAQUE,14.4758,121.045
 85,FB Harrison,FB Harrison Near Cor Vito Cruz Mla.,5360704,NCR - National Capital Region,"NCR, CITY OF MANILA, FIRST DISTRICT",MALATE,14.56,120.99
 86,Tayuman,Tayuman Cor Rizal Ave. Sta. Cruz Mla.,7438453,NCR - National Capital Region,"NCR, CITY OF MANILA, FIRST DISTRICT",SANTA CRUZ,14.6167,120.983
 87,Imus,"Aguinaldo H-Way Cor Tanzang Luma, Imus Cavite",5022550,REGION IV-A (CALABARZON),CAVITE,IMUS,14.4618,120.942
 88,Antipolo Junction,"Circumferential Rd Cor M.L. Quezon, Antipolo",6507089,REGION IV-A (CALABARZON),RIZAL,CITY OF ANTIPOLO,14.5809,121.176
 90,Bangkal,"Evangelista Cor. Alejandro St., Bangkal Mkt.",8890340,NCR - National Capital Region,"NCR, FOURTH DISTRICT",CITY OF MAKATI,14.5396,121.012
 93,Meycauyan 2,"Malhacan Rd. Cor MCArthur H-Way, Meycauyan",9352982,REGION III (Central Luzon),BULACAN,CITY OF MEYCAUAYAN,14.7372,120.961
 96,San Pedro 2,A. Mabini Cor Garcia St. San Pedro Laguna,8688296,REGION IV-A (CALABARZON),LAGUNA,SAN PEDRO,14.3673,121.053
 97,Cavite City,"Cajigas Cor Burgos St., Cavite City",5043865,REGION IV-A (CALABARZON),CAVITE,CAVITE CITY,14.4797,120.898
 98,Ylaya,Ylaya Cor Lakandula St. Binondo Manila,2453422,NCR - National Capital Region,"NCR, CITY OF MANILA, FIRST DISTRICT",BINONDO,14.6072,120.967
 99,Dasmarinas 1,"P. Campos Cor. Cantibuhan, Dasmarinas Cavite",9730025,REGION IV-A (CALABARZON),CAVITE,DASMARIÑAS,14.3267,120.936
 100,Balibago,"Natl H-Way Cor R. Lazaga, Balibago Sta Rosa",5342905,REGION IV-A (CALABARZON),LAGUNA,CITY OF SANTA ROSA,14.2959,121.106
 101,Blum 2,"Blumentritt Cor Isagani St., Manila",7494290,NCR - National Capital Region,"NCR, CITY OF MANILA, FIRST DISTRICT",BINONDO,14.625,120.987
 102,Hermosa,"J. Abad Santos Cor Hermosa St., Tondo Manila",2534061,NCR - National Capital Region,"NCR, CITY OF MANILA, FIRST DISTRICT",TONDO I / II,14.632,120.98
 103,Kabihasnan,Quirino Avenue Cor Kabihasnan San Dionisio Pque,8269318,NCR - National Capital Region,"NCR, FOURTH DISTRICT",CITY OF PARAÑAQUE,14.4921,120.988
 104,Galas,Unang Hakbang Cor Luzon Ave. Galas Q.C.,7153280,NCR - National Capital Region,"NCR, SECOND DISTRICT",QUEZON CITY,14.6122,121.009
 105,Lower Bicutan,"Gen Santos Cor ML Quezon, Lower  Bicutan Taguig",8374305,NCR - National Capital Region,"NCR, FOURTH DISTRICT",TAGUIG CITY,14.4887,121.061
 106,Tamarw Hills,"MCArthur H-Way Cor Tamaraw Hills, Marulas Val.",2932630,NCR - National Capital Region,"NCR, THIRD DISTRICT",CITY OF VALENZUELA,14.6787,120.98
 107,Cabuyao,J.P. Rizal Cor Circumferential Ave. Cabuyao Laguna,8320117,REGION IV-A (CALABARZON),LAGUNA,CABUYAO,14.2772,121.123
 108,Chico,"Anonas Cor Chico, Project 2, Q.C.",9289702,NCR - National Capital Region,"NCR, SECOND DISTRICT",QUEZON CITY,14.6325,121.06
 111,Molino 1,Molino Rd Cor Bahayang Pag-Asa Molino Bacoor,4773083,REGION IV-A (CALABARZON),CAVITE,BACOOR,14.3981,120.978
 112,San Pablo,"Rizal Avenue Cor A. Flores, San Pablo City",5627858,REGION IV-A (CALABARZON),LAGUNA,SAN PABLO CITY,14.0694,121.326
 114,Dasmarinas 2,"Aguinaldo H-Way Cor Mangubat, Dasmarinas",468502667,REGION IV-A (CALABARZON),CAVITE,DASMARIÑAS,14.3266,120.94
 115,Molino 2,"Molino Rd., San Nicolas Bacoor",465723810,REGION IV-A (CALABARZON),CAVITE,BACOOR,14.4262,120.975
 116,Rosario-Salinas,"Gen Trias Drive, Salinas Rosario Cavite",464380651,REGION IV-A (CALABARZON),CAVITE,ROSARIO,14.4148,120.856
 119,Binan 2,Natl H-Way Cor Malvar Rd. Binan Laguna,494111759,REGION IV-A (CALABARZON),LAGUNA,BIÑAN,14.3331,121.082
 120,Balagtas,"MCArthur HWay, Wawa Balagtas, Bulacan",449181123,REGION III (Central Luzon),BULACAN,BALAGTAS (BIGAA),14.8177,120.907
 121,Pulang Lupa,Quirino Ave.  Cor Naga Rd. Pulang Lupa Las Pinas,8732765,NCR - National Capital Region,"NCR, FOURTH DISTRICT",CITY OF LAS PIÑAS,14.4732,120.977
 122,BF Resort,"Zapote Alabang Cor BF Resort Drive, Las Pinas",8744545,NCR - National Capital Region,"NCR, FOURTH DISTRICT",CITY OF LAS PIÑAS,14.4445,120.994
 125,J.P. Ramoy,"J.P. Ramoy Cor Quirino H-Way, Talipapa Novaliches",4539644,NCR - National Capital Region,"NCR, SECOND DISTRICT",QUEZON CITY,14.6859,121.024
 126,Cainta Church,"A Bonifacio Avenue, Cainta Rizal",6550837,REGION IV-A (CALABARZON),RIZAL,CAINTA,14.577,121.117
 127,Tatlong Hari,"Rizal Avenue Cor T. Hari, Sta Rosa Laguna",498373711,REGION IV-A (CALABARZON),LAGUNA,CITY OF SANTA ROSA,14.3149,121.112
 128,LOS BAÑOS,"NATIONAL ROAD, BATONG MALAKE, LOS BAÑOS LAGUNA",495360153,REGION IV-A (CALABARZON),LAGUNA,LOS BAÑOS,14.1784,121.242
 130,Binakayan,"Tirona H-Way Cor Bisita St., Binakayan Cavite",464342610,REGION IV-A (CALABARZON),CAVITE,KAWIT,14.4497,120.923
 131,Lipa H-Way,National H-Way (Big Ben Comm. Complex) Lipa City,439811883,REGION IV-A (CALABARZON),BATANGAS,LIPA CITY,13.9424,121.153
 132,Trece Martirez,"Governors Drive Cor Indang Tanza, Trece Martirez",464192934,REGION IV-A (CALABARZON),CAVITE,TRECE MARTIRES CITY (Capital),14.2821,120.869
 134,Molave,Molave Rd Cor Bayan-Bayanan Concepcion Mkna,9862412,NCR - National Capital Region,"NCR, SECOND DISTRICT",CITY OF MARIKINA,14.651,121.112
 135,Panapaan,Tirona HWay Nr Cor Aguinaldo HWay Bacoor,469707010,REGION IV-A (CALABARZON),CAVITE,BACOOR,14.4456,120.952
 136,Apalit,"MC Arthur HWay Cor David St., Apalit Pamoanga",458790505,REGION III (Central Luzon),PAMPANGA,APALIT,14.9503,120.759
 137,San Pedro 3,Pacita Ave. Nr Cor Macaria Ave. San Pedro Laguna,8479192,REGION IV-A (CALABARZON),LAGUNA,SAN PEDRO,14.3435,121.058
 138,Lipa Proper,"C.M. Recto Avenue, Lipa City",439810437,REGION IV-A (CALABARZON),BATANGAS,LIPA CITY,13.9416,121.163
 141,Camarin,"Camarin Cor Susano  Rd., Caloocan",9629129,NCR - National Capital Region,"NCR, THIRD DISTRICT",CALOOCAN CITY,14.756,121.044
 142,Tanza,"Sta Cruz Cor Agustin, Tanza Cavite",465052667,REGION IV-A (CALABARZON),CAVITE,TANZA,14.4001,120.857
 144,Aglipay,"A.T. Reyes Cor. Boni Avenue, Aglipay Mandaluyong",5343557,NCR - National Capital Region,"NCR, SECOND DISTRICT",CITY OF MANDALUYONG,14.5863,121.026
 145,Naic,"Nazareno Cor. Poblete St., NAIC Cavite",464120727,REGION IV-A (CALABARZON),CAVITE,NAIC,14.3195,120.764
 147,Shorthon,"Road 20 Cor. Shorthom Proj 8, Q.C.",4531311,NCR - National Capital Region,"NCR, SECOND DISTRICT",QUEZON CITY,14.6684,121.02
 148,J.P. Rizal,"Constancia St., Cor J.P. Rizal Avenue, Makati",8991225,NCR - National Capital Region,"NCR, FOURTH DISTRICT",CITY OF MAKATI,14.5709,121.02
 150,Zabarte,Quirino Cor Zabarte Rd. Novaliches,4170220,NCR - National Capital Region,"NCR, SECOND DISTRICT",QUEZON CITY,14.7316,121.048
 152,Dasma 3,"Congressional Rd., Dbb, Dasmarinas",455402023,REGION IV-A (CALABARZON),CAVITE,DASMARIÑAS,14.3221,120.964
 153,Pedro Gil Main,"Pedro Gil Cor. Main St., Paco Manila",5616821,NCR - National Capital Region,"NCR, CITY OF MANILA, FIRST DISTRICT",PACO,14.5787,121
 154,Insular Burgos,P Burgos Cor. Gen Luna Makati City,8953440,NCR - National Capital Region,"NCR, FOURTH DISTRICT",CITY OF MAKATI,14.5646,121.031
 155,San Andres Onyx,"A. Francisco Cor Onyx, San Andres Manila",5616819,NCR - National Capital Region,"NCR, CITY OF MANILA, FIRST DISTRICT",PACO,14.5737,121.004
 160,San Bartolome,"P. Dela Cruz Near Corner Quirino H-Way, SB",9391045,NCR - National Capital Region,"NCR, SECOND DISTRICT",QUEZON CITY,14.701,121.035
 162,San Fernando,San Fernando Pampanga,459637574,REGION III (Central Luzon),PAMPANGA,CITY OF SAN FERNANDO (Capital),15.029,120.693
 165,Superlines,EDSA Cor. Monte De Piedad St. Cubao Q.C.,4148267,NCR - National Capital Region,"NCR, SECOND DISTRICT",QUEZON CITY,14.6246,121.048
 166,Columbia,Grnd. Flr. Columbia Tower Mandaluyong City,7247800,NCR - National Capital Region,"NCR, SECOND DISTRICT",CITY OF MANDALUYONG,14.5946,121.056
 167,Jupiter,Makati Ave. Cor. Gil Puyat Ave. Makati City,8977445,NCR - National Capital Region,"NCR, FOURTH DISTRICT",CITY OF MAKATI,14.5617,121.028
 168,T.M. Kalaw,Kimme Bldg. T.M. Kalaw Cor. Mabini St. Ermita M.M.,4906068,NCR - National Capital Region,"NCR, CITY OF MANILA, FIRST DISTRICT",ERMITA,14.581,120.98
 172,West Avenue,West Ave. Corner Zamboange St. Q.C,2638476,NCR - National Capital Region,"NCR, SECOND DISTRICT",QUEZON CITY,14.6383,121.026
 176,Farmers,"Space 1&2,2nd Level,New Farmers Plaza,Cubao,Q.C.",4391319,NCR - National Capital Region,"NCR, SECOND DISTRICT",QUEZON CITY,14.6201,121.051
 180,Batangas City,"P. Burgos St.,cor. Panganiban St., Batangas City",437230926,REGION IV-A (CALABARZON),BATANGAS,BATANGAS CITY (Capital),13.7559,121.059
 184,Doroteo Jose,"D. Jose St. cor. Rizal Ave., Sta. Cruz, Manila",7416551,NCR - National Capital Region,"NCR, CITY OF MANILA, FIRST DISTRICT",SANTA CRUZ,14.6051,120.982
 185,Global Plaza,"Airport Rd. cor. Coastal Rd., Global Plaza Bldg.",8523733,NCR - National Capital Region,"NCR, FOURTH DISTRICT",CITY OF PARAÑAQUE,14.5172,120.994
 187,Virra 1,"Virra 1 Bldg., P. Burgos St., Makati City",8982240,NCR - National Capital Region,"NCR, FOURTH DISTRICT",CITY OF MAKATI,14.5633,121.029
 192,Turbina,"National Highway Brgy, Turbina, Calamba Laguna",5456290,REGION IV-A (CALABARZON),LAGUNA,CITY OF CALAMBA,14.1853,121.137
 193,Bauan,"National Road., Bauan , Batangas",9801535,REGION IV-A (CALABARZON),BATANGAS,BAUAN,13.7907,121.01
 194,Angono,"M.L Quezon Ave., Angono, Rizal",4511081,REGION IV-A (CALABARZON),RIZAL,ANGONO,14.5236,121.153
 195,RFM,"RFM, Corporate Center, Mandaluyong City",7475308,NCR - National Capital Region,"NCR, SECOND DISTRICT",CITY OF PASIG,14.5711,121.052
 196,Urdaneta,"Brgy Polacion, Urdaneta City, Pangasinan",696048900,REGION I (Ilocos Region),PANGASINAN,CITY OF URDANETA,15.9724,120.571
 198,Matalino,"Matalino St. Cor. Malakas St., Diliman Quezon City",4346097,NCR - National Capital Region,"NCR, SECOND DISTRICT",QUEZON CITY,14.6446,121.05
 199,Rizal Med,"Pasig Blvd. cor F. Banaag, Pineda Pasig City",6721669,NCR - National Capital Region,"NCR, SECOND DISTRICT",CITY OF PASIG,14.5636,121.065
 200,Carmen,"Mc Arthur Highway, Carmen Rosales, Pangasinan",755823488,REGION I (Ilocos Region),PANGASINAN,ROSALES,15.8834,120.599
 204,Precilla,"Pasong Tamo Ext-Kayamanan - C, Makati City",8300272,NCR - National Capital Region,"NCR, FOURTH DISTRICT",CITY OF MAKATI,14.5348,121.022
 206,Zapote,"Alabang Zapote Rd. cor. F. Santos, Las Piñas City",8738861,NCR - National Capital Region,"NCR, FOURTH DISTRICT",CITY OF LAS PIÑAS,14.4637,120.969
 208,Angeles,"Sto. Rosario corner Sukdulan Street, Angeles City",425009600,REGION III (Central Luzon),PAMPANGA,ANGELES CITY,15.1333,121.001
 209,Dagupan,"Arellano Street, Dagupan City",696055400,REGION I (Ilocos Region),PANGASINAN,DAGUPAN CITY,16.0476,120.342
 210,Session 2,"GF B-105 Lopez Bldg., Session Rd., Baguio City",744465499,CAR - Cordillera Administrative Region,BENGUET,BAGUIO CITY,16.4131,120.597
 211,Orosa,"MY Orosa nr. cor., TM Kalaw, Ermita Manila",5275862,NCR - National Capital Region,"NCR, CITY OF MANILA, FIRST DISTRICT",ERMITA,14.5816,120.981
 212,Lemery,"Ilustre Ave. cor. P. Burgos St., Lemery, Batangas",434090135,REGION IV-A (CALABARZON),BATANGAS,LEMERY,13.8805,120.916
 213,Parkview,"Valero St., cor. Salcedo Village, Makati City",7506780,NCR - National Capital Region,"NCR, FOURTH DISTRICT",CITY OF MAKATI,14.5585,121.022
 214,San Pablo 2,Leonor St. cor. Maharlika Hi-way San Pablo Laguna,495621412,REGION IV-A (CALABARZON),LAGUNA,SAN PABLO CITY,14.0643,121.323
 215,Crame,"Boni Serrano cor. 2nd Ave. Camp Crame, Q.C.",2345056,NCR - National Capital Region,"NCR, SECOND DISTRICT",QUEZON CITY,14.6104,121.053
 216,Bac 2,"Quirino Ave. CR. Dimasalang, Baclaran, P'que",8319748,NCR - National Capital Region,"NCR, FOURTH DISTRICT",CITY OF PARAÑAQUE,14.5302,120.997
 217,Nova 3,"Quirino H-way cor. Sarmiento St., Novaliches City",2173320,NCR - National Capital Region,"NCR, SECOND DISTRICT",QUEZON CITY,14.7194,121.04
 218,Taytay2,"Manila-East  Road, Taytay Rizal",9238554,REGION IV-A (CALABARZON),RIZAL,TAYTAY,14.5591,121.136
 219,P. Campa,"Espana cor. P. Campa Sampaloc St., Manila",7367206,NCR - National Capital Region,"NCR, CITY OF MANILA, FIRST DISTRICT",SAMPALOC,14.6055,120.989
 221,Bac 3,"Roxas Blvd., Baclaran, Paranaque",8530092,NCR - National Capital Region,"NCR, FOURTH DISTRICT",CITY OF PARAÑAQUE,14.5332,120.994
 222,Calam 2,"National H-way nr. cor. Halang st., Calamba Laguna",495357355,REGION IV-A (CALABARZON),LAGUNA,CITY OF CALAMBA,14.1967,121.163
 224,Luisita,"Mc Arthur H-way, San Miguel Tarlac City",459851140,REGION III (Central Luzon),TARLAC,CITY OF TARLAC (Capital),15.4838,120.599
 226,Legarda,"2108 Legarda st., Quiapo Manila",4880739,NCR - National Capital Region,"NCR, CITY OF MANILA, FIRST DISTRICT",QUIAPO,14.5991,120.991
 228,Bocaue,McArthur Hi-way cor. Gov. F.Halili Ave. Bocaue,449201055,REGION III (Central Luzon),BULACAN,BOCAUE,14.9518,120.929
 229,Cityland10,"Cityland10 Tower Valero cor dela Costa St.,Makati",8935601,NCR - National Capital Region,"NCR, FOURTH DISTRICT",CITY OF MAKATI,14.5608,121.017
 231,Mkti City Hall,"1335 Angono cor. Hormige St. Poblacion, Makati",8976375,NCR - National Capital Region,"NCR, FOURTH DISTRICT",CITY OF MAKATI,14.5705,121.026
 232,CBC,"115 G/F CBC, Paseo cor. Pasay Rd., Makati",8402903,NCR - National Capital Region,"NCR, FOURTH DISTRICT",CITY OF MAKATI,14.5511,121.019
 234,La Huerta,"Quirino Ave. cor. Dandan St., La Huerta, Parañaque",8200296,NCR - National Capital Region,"NCR, FOURTH DISTRICT",CITY OF PARAÑAQUE,14.4999,120.991
 236,UP Manila,"Pedro Gil St nr. cor. Taft Ave., Malate, Manila",5214987,NCR - National Capital Region,"NCR, CITY OF MANILA, FIRST DISTRICT",MALATE,14.5759,120.988
 237,Orient,"Ruby Road, Ortigas Center, Pasig City",6876941,NCR - National Capital Region,"NCR, SECOND DISTRICT",CITY OF PASIG,14.5852,121.061
 239,Park N' Ride,"P. Burgos cor. Dr. Basa St., Ermita Manila",5217035,NCR - National Capital Region,"NCR, CITY OF MANILA, FIRST DISTRICT",ERMITA,14.5933,120.98
 241,St. Luke's,"E. Rodriguez cor. Victoria St., New Manila, Q.C.",4145914,NCR - National Capital Region,"NCR, SECOND DISTRICT",QUEZON CITY,14.6216,121.024
 243,Merville,Moreland Bldg.  cor West Service Rd,7760483,NCR - National Capital Region,"NCR, FOURTH DISTRICT",PASAY CITY,14.5085,121.033
 248,Pasig Mega,"Mega Parking , Caruncho cor Market Avenue",2636398,NCR - National Capital Region,"NCR, SECOND DISTRICT",CITY OF PASIG,14.5582,121.083
 249,Binangonan,"Quezon St., Libis, Binangonan, Rizal",2892370,REGION IV-A (CALABARZON),RIZAL,BINANGONAN,14.4646,121.192
 250,Aurora,"Aurora Blvd. cor St. Mary,Cubao, Quezon City",9116230,NCR - National Capital Region,"NCR, SECOND DISTRICT",QUEZON CITY,14.6226,121.052
 251,Nobel,"G/F,110 Nobel Plaza,Valero St., Makati City",8886458,NCR - National Capital Region,"NCR, FOURTH DISTRICT",CITY OF MAKATI,14.5598,121.019
 252,Talon,"J. Aguilar Ave ,Talon,Las Pinas City",8735772,NCR - National Capital Region,"NCR, FOURTH DISTRICT",CITY OF LAS PIÑAS,14.4456,120.994
 254,Salauag,"Molino-Paliparan Road,Salawag Dasmarinas,Cavite",5061014,REGION IV-A (CALABARZON),CAVITE,DASMARIÑAS,14.3463,120.981
 256,Marikina Bridge,"E. Rodriguez cor JP Rizal St., Marikina",6828446,NCR - National Capital Region,"NCR, SECOND DISTRICT",CITY OF MARIKINA,14.6357,121.095
 257,Shoe Avenue,"Shoe Avenue cor Capt Venciong, Sta. Elena",2175943,NCR - National Capital Region,"NCR, SECOND DISTRICT",CITY OF MARIKINA,14.6337,121.098
 258,Herrera,"Y-L Bldg.,Herrera St.,Legaspi Village,Makati City",8302347,NCR - National Capital Region,"NCR, FOURTH DISTRICT",CITY OF MAKATI,14.5555,121.016
 261,Calamba Crossing,"along Provincial Road , Calamba-Crossing, Laguna",495456749,REGION IV-A (CALABARZON),LAGUNA,CITY OF CALAMBA,14.2059,121.155
 262,PCU 2,"Taft Ave. cor Pedro Gil,Manila",5220133,NCR - National Capital Region,"NCR, CITY OF MANILA, FIRST DISTRICT",PACO,14.576,120.988
 264,Trece 2,"Gov. Drive cor. Indang, Tanza Road",464191467,REGION IV-A (CALABARZON),CAVITE,TRECE MARTIRES CITY (Capital),14.2815,120.868
 268,Arayat 2,"Arayat cor.Pinatubo St.,Cubao Quezon City",9850943,NCR - National Capital Region,"NCR, SECOND DISTRICT",QUEZON CITY,14.6196,121.051
 270,Binan 3,"A. Bonifacio  Poblacion, Binan Laguna",494113260,REGION IV-A (CALABARZON),LAGUNA,BIÑAN,14.339,121.083
 271,Shaw Starmall,Shaw Blvd. cor. EDSA Mandaluyong,7240376,NCR - National Capital Region,"NCR, SECOND DISTRICT",CITY OF MANDALUYONG,14.5816,121.053
 272,Betterliving 2,"Dona Soledad ave. cor. Peru, Paranaque City",8229299,NCR - National Capital Region,"NCR, FOURTH DISTRICT",CITY OF PARAÑAQUE,14.4849,121.03
 274,Fields Ave.,"G/F HHH Commercial Bldg, Balibago,Angeles City",425000900,REGION III (Central Luzon),PAMPANGA,ANGELES CITY,15.1666,120.584
 275,FEU,"913-919 Nicanor Reyes cor., Sampaloc,Manila",7348015,NCR - National Capital Region,"NCR, CITY OF MANILA, FIRST DISTRICT",SAMPALOC,14.6046,120.988
 276,Hansel,"Aurora Blvd. cor.Imperial, Cubao, Quezon City",4392679,NCR - National Capital Region,"NCR, SECOND DISTRICT",QUEZON CITY,14.6231,121.053
 277,Session 3,128 Session Road Baguio City,744467449,CAR - Cordillera Administrative Region,BENGUET,BAGUIO CITY,16.4121,120.598
 278,Sagittarius,Sagittarius Bldg. Salcedo Village Makati,8176432,NCR - National Capital Region,"NCR, FOURTH DISTRICT",CITY OF MAKATI,14.5606,121.026
 279,Marina,"A. Mabini St., Malate Manila",5238407,NCR - National Capital Region,"NCR, CITY OF MANILA, FIRST DISTRICT",MALATE,14.5736,120.983
 281,T. Morato,Scout Castor cor. T. Morato Ave.,3762207,NCR - National Capital Region,"NCR, SECOND DISTRICT",QUEZON CITY,14.6292,121.034
 282,Gatchilian,Palanyag St. Parañaque City,8269949,NCR - National Capital Region,"NCR, FOURTH DISTRICT",CITY OF PARAÑAQUE,14.4756,121
 283,RCBC,"3rd Flr RCBC Podium, Ayala Cor Buendia , Makati",9946718,NCR - National Capital Region,"NCR, FOURTH DISTRICT",CITY OF MAKATI,14.5608,121.016
 284,Burgundy,"One Burgundy Plaza , Katipunan Quezon City",9200964,NCR - National Capital Region,"NCR, SECOND DISTRICT",QUEZON CITY,14.638,121.074
 288,San Fernando 2,"San Fernando Crossing, San Fernando, Pampanga",9618318,REGION III (Central Luzon),PAMPANGA,CITY OF SAN FERNANDO (Capital),15.041,120.683
 289,Karuhatan 2,"Mc Arthur Hi-way, Karuhatan, Valenzuela City",2931621,NCR - National Capital Region,"NCR, THIRD DISTRICT",CITY OF VALENZUELA,14.69,120.974
 293,Plaridel,"Cagayan Valley Road, Banga 1st, Plaridel, Bulacan",7662778,REGION III (Central Luzon),BULACAN,PLARIDEL,14.8828,120.867
 294,Binan 4,"National Highway Brgy Sto Nino, Binan Laguna",4110696,REGION IV-A (CALABARZON),LAGUNA,BIÑAN,14.3313,121.086
 295,Kings Plaza,"Kings Plaza,J.Luna cor. Padre Rada St.Tondo Manila",2414950,NCR - National Capital Region,"NCR, CITY OF MANILA, FIRST DISTRICT",TONDO I / II,14.6067,120.97
 296,Manansala,"Manansala Bldg. Estrella  St., Makati City",8908731,NCR - National Capital Region,"NCR, FOURTH DISTRICT",CITY OF MAKATI,14.5647,121.038
 297,DFA,"G/F AIMS Bldg., Roxas Blvd.Arnaiz St., Pasay City",8331733,NCR - National Capital Region,"NCR, FOURTH DISTRICT",PASAY CITY,14.5456,120.992
 299,Indang,"San Gregorio near cor Mabini St., Indang Cavite",4150245,REGION IV-A (CALABARZON),CAVITE,INDANG,14.1973,120.877
 300,Convergys,"Salcedo St., Makati City",751210811,NCR - National Capital Region,"NCR, FOURTH DISTRICT",CITY OF MAKATI,14.5594,121.016
 301,Annapolis,"G/F Continental Plaza ,Greenhills San Juan MM",724934400,NCR - National Capital Region,"NCR, SECOND DISTRICT",CITY OF SAN JUAN,14.6039,121.052
 302,Ayala FGU,"Salcedo St., Salcedo Village, Makati City",8131372,NCR - National Capital Region,"NCR, FOURTH DISTRICT",CITY OF MAKATI,14.5598,121.017
 303,Asian Mansion,"Dela Rosa St., Legaspi Village Makati City",8872506,NCR - National Capital Region,"NCR, FOURTH DISTRICT",CITY OF MAKATI,14.5553,121.021
 304,Starwood Hotel,Kisad Road near corner Marcos Highway Baguio City,44658311,CAR - Cordillera Administrative Region,BENGUET,BAGUIO CITY,16.4029,120.595
 307,Madrigal Bldg.,"G/F Madrigal Bldg,Ayala Avenue, Makati City",8122235,NCR - National Capital Region,"NCR, FOURTH DISTRICT",CITY OF MAKATI,14.558,121.02
 308,LAS PIÑAS CITY HALL,"Pamplona, Las Piñas City",8713479,NCR - National Capital Region,"NCR, FOURTH DISTRICT",CITY OF LAS PIÑAS,14.4489,120.983
 309,AIC-Gale,"Garnet Road, Ortigas Center, Pasig City",7064894,NCR - National Capital Region,"NCR, SECOND DISTRICT",CITY OF PASIG,14.5896,121.061
 311,PDCP,"G/F PDCP Bank Center, Salcedo Village, Makati City",8934465,NCR - National Capital Region,"NCR, FOURTH DISTRICT",CITY OF MAKATI,14.5598,121.02
 312,US Embassy,"Roxas Blvd., cor UN Avenue Ermita, Manila",4000551,NCR - National Capital Region,"NCR, CITY OF MANILA, FIRST DISTRICT",ERMITA,14.5791,120.978
 313,Northgate,"Filinvest Corporate City, Muntinlupa",7285377,NCR - National Capital Region,"NCR, FOURTH DISTRICT",CITY OF MUNTINLUPA,14.4257,121.04
 315,Banaue,"426 Banawe Ave. cor tirad paz St. SMH, Quezon City",7490401,NCR - National Capital Region,"NCR, SECOND DISTRICT",QUEZON CITY,14.6285,121.004
 316,Xavier Hills,"G/F Xavier hills Condo.Granada St. N. Domingo, QC",7219740,NCR - National Capital Region,"NCR, SECOND DISTRICT",CITY OF SAN JUAN,14.6115,121.036
 318,Pearl Drive 1,Pearl Drive cor Lourdes St. Ortigas Pasig,6673989,NCR - National Capital Region,"NCR, SECOND DISTRICT",CITY OF PASIG,14.5798,121.06
 321,Buendia 2,"Gil Puyat Ave. FB Harisson St.,  Pasay City",5222474,NCR - National Capital Region,"NCR, FOURTH DISTRICT",PASAY CITY,14.5532,120.992
 322,St. Scholastica,"896 Vito Cruz cor. Dominga St., Malate Manila",5368495,NCR - National Capital Region,"NCR, CITY OF MANILA, FIRST DISTRICT",MALATE,14.5629,120.996
 323,Channel 7,"Timog Avenue cor Samar St., Diliman Quezon City",9205650,NCR - National Capital Region,"NCR, SECOND DISTRICT",QUEZON CITY,14.6332,121.043
 325,Sta. Cruz,"P.Guevarra Ave.Brgy.3 Poblacion,Sta. Cruz Laguna",8084699,REGION IV-A (CALABARZON),LAGUNA,SANTA CRUZ (Capital),14.2797,121.415
 326,Gapan,"Bucana,Gapan Crossing Nueva Ecija City",4869482,REGION III (Central Luzon),NUEVA ECIJA,CITY OF GAPAN,15.3075,120.946
 328,Cabanatuan 2,Mabini Quezon District Cabanatuan Nueva Ecija,4633815,REGION III (Central Luzon),NUEVA ECIJA,CABANATUAN CITY,15.4884,120.972
 329,Dangwa,Don Quijote St. Sampaloc Manila,7499386,NCR - National Capital Region,"NCR, CITY OF MANILA, FIRST DISTRICT",SAMPALOC,14.6151,120.99
 329,Dangwa,Don Quijote St. Sampaloc Manila,7499386,NCR - National Capital Region,"NCR, CITY OF MANILA, FIRST DISTRICT",SAMPALOC,14.6151,120.99
 330,Imperial Palace,Tomas Morato Ave. cor Diliman Quezon City,9282281,NCR - National Capital Region,"NCR, SECOND DISTRICT",QUEZON CITY,14.6354,121.036
 332,Legarda 2,"Jhocson St, Sampaloc, Manila",7346469,NCR - National Capital Region,"NCR, CITY OF MANILA, FIRST DISTRICT",SAMPALOC,14.6007,120.996
 333,Balibago Complex,"Balibago Complex Balibago,Sta. Rosa Laguna",5343026,REGION IV-A (CALABARZON),LAGUNA,CITY OF SANTA ROSA,14.2938,121.105
 334,Owwa2,"Solana St, Intramuros, Manila",5273654,NCR - National Capital Region,"NCR, CITY OF MANILA, FIRST DISTRICT",INTRAMUROS,14.5893,120.978
 335,Mamatid,"Banlic, Cabuyao, Laguna",5310112,REGION IV-A (CALABARZON),LAGUNA,CABUYAO,14.228,121.139
 336,Padre Faura,"Padre faura St, Ermita, Manila",5260090,NCR - National Capital Region,"NCR, CITY OF MANILA, FIRST DISTRICT",ERMITA,14.5768,120.98
 338,Pagsanjan,"Calle Rizal, Poblacion Pagsanjan Laguna",8210832,REGION IV-A (CALABARZON),LAGUNA,PAGSANJAN,14.2737,121.455
 339,Nasugbu,JP Laurel St. cor. G. Alvarez st. Nasugbu Batangas,2162777,REGION IV-A (CALABARZON),BATANGAS,NASUGBU,14.0724,120.632
 341,Olivarez,"San Dionisio, Para¿aque City",8207175,NCR - National Capital Region,"NCR, FOURTH DISTRICT",CITY OF PARAÑAQUE,14.4788,120.998
 342,R. Magsaysay,"173 Edsa cor. Ermin Garcia st., Cubao QC",7270372,NCR - National Capital Region,"NCR, SECOND DISTRICT",QUEZON CITY,14.6272,121.047
 343,Fields 2,"McArthur Highway, Balibago, Angeles City, Pampanga",6247529,REGION III (Central Luzon),PAMPANGA,ANGELES CITY,15.1677,120.589
 344,Molino 3,"Zapote-Molino Road Brgy. Molino 3, Bacoor, Cavite",5172036,REGION IV-A (CALABARZON),CAVITE,BACOOR,14.3885,120.977
 345,Baliuag 2,Poblacion Plaza Naning Baliuag Bulacan,7662778,REGION III (Central Luzon),BULACAN,BALIUAG,14.9546,120.901
 346,Pedro Gil,"1578 A. Mabini Cor. Pedro Gil St. Ermita, Manila",5224956,NCR - National Capital Region,"NCR, CITY OF MANILA, FIRST DISTRICT",ERMITA,14.574,120.983
 347,Bulihan,"AFP Housing Old Bulihan Rd. Silang, Cavite",8902488,REGION IV-A (CALABARZON),CAVITE,SILANG,14.2831,120.998
 349,Teachers Bliss,Teachers Bliss Balong Bato Balintawak Quezon City,3670526,NCR - National Capital Region,"NCR, SECOND DISTRICT",QUEZON CITY,14.6634,121.002
 350,Pacific Center,"San Miguel Avenue, Ortigas Center, Pasig city",6387098,NCR - National Capital Region,"NCR, SECOND DISTRICT",CITY OF PASIG,14.5811,121.06
 352,Baclaran 4,Roxas Blvd. corner Rivera St. Baclaran Paranaque,8522363,NCR - National Capital Region,"NCR, FOURTH DISTRICT",CITY OF PARAÑAQUE,14.529,120.994
 353,Guagua,"One Crown P. & Devt,Plaza Burgos, Guagua, Pampanga",9001043,REGION III (Central Luzon),PAMPANGA,GUAGUA,14.9653,120.634
 356,Gualberto,"Zunio St. Gualberto Ave., Rosario, Batangas City",3210981,REGION IV-A (CALABARZON),BATANGAS,ROSARIO,13.8453,121.206
 357,Tanza 2,"Tanza-Crossing, Daang Amaya, Tanza, Cavite",4371341,REGION IV-A (CALABARZON),CAVITE,TANZA,14.3917,120.852
 358,Dau,"157 McArthur Hi-way, Dau, Mabalacat, Pampanga",9828071,REGION III (Central Luzon),PAMPANGA,MABALACAT,15.1792,120.587
 360,Cabanatuan 3,"Manson Bldg. Burgos Ave., Cabanatuan City",6002619,REGION III (Central Luzon),NUEVA ECIJA,CABANATUAN CITY,15.4878,120.963
 362,T. Mapua,"1512 C.M.Recto cor. F.Torres Sta. Cruz, Manila",7358196,NCR - National Capital Region,"NCR, CITY OF MANILA, FIRST DISTRICT",SANTA CRUZ,14.6037,120.981
 363,Lopez Drive,Lopez Ave. cor Dr. A Santos Ave.  Paranaque City,5418904,NCR - National Capital Region,"NCR, FOURTH DISTRICT",CITY OF PARAÑAQUE,14.4684,121.012
 365,McKinley Hill,"G/F One Square, Upper McKinley Rd. Taguig City",8565085,NCR - National Capital Region,"NCR, FOURTH DISTRICT",TAGUIG CITY,14.5354,121.047
 367,Riverbanks,"ICT Bldg. 2 Riverbanks Center, Barangka, Markina",9484789,NCR - National Capital Region,"NCR, SECOND DISTRICT",CITY OF MARIKINA,14.6294,121.082
 368,Naguillan,Naguillan Rd. cor. Bokawkan Rd. Baguio City,4425668,CAR - Cordillera Administrative Region,BENGUET,BAGUIO CITY,16.4154,120.589
 369,Balayan,"112 Plaza Mabini St. Balayan, Batangas",9211044,REGION IV-A (CALABARZON),BATANGAS,BALAYAN,13.9374,120.729
 372,Pascor Drive,"Ninoy Aquino Avenue, Paranaque City",8533493,NCR - National Capital Region,"NCR, FOURTH DISTRICT",CITY OF PARAÑAQUE,14.5071,121.001
 375,Villamor,"12th St. Airman's Village Airbase Area, Pasay City",8547524,NCR - National Capital Region,"NCR, FOURTH DISTRICT",PASAY CITY,14.5254,121.012
 376,TSU,Brgy. Cut-Cut Romulo Ave. Tarlac City,9821781,REGION III (Central Luzon),TARLAC,CITY OF TARLAC (Capital),15.4854,120.587
 377,Lucena 2,"Lot #2771-B Along Quezon ave, Lucena City, Quezon",6607050,REGION IV-A (CALABARZON),QUEZON,LUCENA CITY (Capital),13.9356,121.613
 378,Blumentritt 1,"Rizal Ave. cor. Blumentritt Sta. Cruz, Manila",7328201,NCR - National Capital Region,"NCR, CITY OF MANILA, FIRST DISTRICT",SANTA CRUZ,14.623,120.983
 380,Citadella,CAA Rd. corner Citadella Ave. Las Pi¿as City,8286120,NCR - National Capital Region,"NCR, FOURTH DISTRICT",CITY OF LAS PIÑAS,14.4563,120.994
 381,Don Galo,"Quirino ave, Dimatimbangan St Don Galo Paranaque",8531055,NCR - National Capital Region,"NCR, FOURTH DISTRICT",CITY OF PARAÑAQUE,14.5045,120.994
 383,Maya Arcade,"G/F Maya Arcade 678 Edsa, Cubao, Quezon City",3760163,NCR - National Capital Region,"NCR, SECOND DISTRICT",QUEZON CITY,14.6241,121.049
 384,One E - Com,Harbour Drive cor Palm Coast Ave. Pasay City,7998124,NCR - National Capital Region,"NCR, FOURTH DISTRICT",PASAY CITY,14.5385,120.982
 386,Palico,"Along Aguinaldo Hi-Way, Palico II, Imus, Cavite",4719577,REGION IV-A (CALABARZON),CAVITE,IMUS,14.429,120.945
 387,Binangonan 2,"National Road Pantok, Binangonan, Rizal",6527003,REGION IV-A (CALABARZON),RIZAL,BINANGONAN,14.4936,121.18
 388,Bago Bantay,"131 Ilocus Sur St. Bago Bantay, Quezon City",9264642,NCR - National Capital Region,"NCR, SECOND DISTRICT",QUEZON CITY,14.6599,121.026
 389,Lucban,"Quezon Avenue Miramonte Subd. Lucban, Quezon",9111711,REGION IV-A (CALABARZON),QUEZON,LUCBAN,14.1138,121.556
 390,One McKinley,"26th St.Fort Bonifacio, Global City Taguig",8565824,NCR - National Capital Region,"NCR, FOURTH DISTRICT",TAGUIG CITY,14.5494,121.045
 391,Manaoag,"Felix St. cor. Garcia St. Manaoag, Pangasinan",5176229,REGION I (Ilocos Region),PANGASINAN,MANAOAG,16.0445,120.487
 393,Tranco Ville,"27 Rimando Rd., Topaz Bldg.,Brgy. Alfonso,  Baguio",4425808,CAR - Cordillera Administrative Region,BENGUET,BAGUIO CITY,16.4217,120.6
 394,Maragondon,Poblacion 1-A Maragondon Cavite,4122501,REGION IV-A (CALABARZON),CAVITE,MARAGONDON,14.2756,120.737
 395,Imus 2,"97-B Aguinaldo Hway Bayan Luma, Imus Cavite",4723992,REGION IV-A (CALABARZON),CAVITE,IMUS,14.4065,120.94
 396,DLSU-Lipa,"National Hway, Brgy. Paninsingin, Tambo, Lipa City",3121963,REGION IV-A (CALABARZON),BATANGAS,LIPA CITY,13.9413,121.147
 397,Sta. Rosa Estate,"Sta. Rosa Estate, Sta. Rosa,  Laguna",5440446,REGION IV-A (CALABARZON),LAGUNA,CITY OF SANTA ROSA,14.2493,121.063
 398,Gordon Hospital,"104 Rizal Avenue East Tapinac, Olongapo City",2231899,REGION III (Central Luzon),ZAMBALES,OLONGAPO CITY,14.8278,120.28
 400,FPIP,"#158 Sta. Anastacia,  Sto. Tomas, Batangas",5440446,REGION IV-A (CALABARZON),BATANGAS,SANTO TOMAS,14.1368,121.135
 401,Philcom,"8755 Paseo de Roxas, Makati City",8941194,NCR - National Capital Region,"NCR, FOURTH DISTRICT",CITY OF MAKATI,14.5577,121.023
 403,Tagaytay 2,"Calamba Road, Tagaytay City",4385711,REGION IV-A (CALABARZON),CAVITE,TAGAYTAY CITY,14.1252,120.992
 404,Pacific Regency,"G/F Pacific Regency Bldg, Malate Manila.",7388016,NCR - National Capital Region,"NCR, CITY OF MANILA, FIRST DISTRICT",MALATE,14.5614,120.994
 410,Sto. Ni¿o Meycauayan,"Sto. Ni¿o Village, Meycauayan, Bulacan",4753375,REGION III (Central Luzon),BULACAN,CITY OF MEYCAUAYAN,14.7651,120.989
 411,Sta. Maria,"Poblacion Sta. Maria, Bulacan",5466820,REGION III (Central Luzon),BULACAN,BULACAN,14.8392,120.961
 412,Don Bosco,"Pasong Tamo cor Don Bosco St.,  Makati City",8193348,NCR - National Capital Region,"NCR, FOURTH DISTRICT",CITY OF MAKATI,14.5481,121.014
 413,BF Homes 2,"Dr. A. Santos Avenue, BF Homes, Paranaque City",8267990,NCR - National Capital Region,"NCR, FOURTH DISTRICT",CITY OF PARAÑAQUE,14.4586,121.032
 414,Lemery 2,"Ilustre Avenue, Lemery Batangas",4112023,REGION IV-A (CALABARZON),BATANGAS,LEMERY,13.9388,120.916
 415,Mendez Proper,"Market Rd., Brgy., Poblacion Mendez, Cavite",8611736,REGION IV-A (CALABARZON),CAVITE,TAGAYTAY CITY,14.1332,120.903
 416,AUF,"Mc Arthur Highway, Angeles, Pampanga",8883231,REGION III (Central Luzon),PAMPANGA,ANGELES CITY,15.1462,120.595
 418,Multinational,"Lot 2 Aquino Avenue, Para¿aque City",8522797,NCR - National Capital Region,"NCR, FOURTH DISTRICT",CITY OF PARAÑAQUE,14.5,120.997
 419,Gate-3 Taguig,"AFPOVAI Phase 3, Fort Bonifacio, Taguig City",8892758,NCR - National Capital Region,"NCR, FOURTH DISTRICT",TAGUIG CITY,14.4684,121.012
 420,One San Miguel,Shaw Blvd.cor one san miguel ave. pasig city,6871736,NCR - National Capital Region,"NCR, SECOND DISTRICT",CITY OF PASIG,14.5781,121.058
 421,Aic Gold,"Emerald Avenue, Ortigas Center, Pasig City",6375265,NCR - National Capital Region,"NCR, SECOND DISTRICT",CITY OF PASIG,14.5888,121.062
 422,La Union 1,"Gov. Ortega St., San Fernando City, La Union",2427110,REGION I (Ilocos Region),LA UNION,CITY OF SAN FERNANDO (Capital),16.6169,120.315
 423,Calasiao,"cor San Miguel St., Calasiao Pangasinan",5176229,REGION I (Ilocos Region),PANGASINAN,CALASIAO,16.0112,120.358
 424,Capas,"Mc Arthur Hiway, Poblacion Capas, Tarlac",4912971,REGION III (Central Luzon),TARLAC,CITY OF TARLAC (Capital),15.3327,120.591
 425,Sunny Brooke,"Blk.31 Lot 6, Bookeside Lane Gen Trias Cavite",6864280,REGION IV-A (CALABARZON),CAVITE,CAVITE CITY,14.315,120.915
 426,Sindalan,"Mc Arthur Hiway, Sindalan San Fernando, Pampanga",4550992,REGION III (Central Luzon),PAMPANGA,CITY OF SAN FERNANDO (Capital),15.0779,120.641
 427,Talavera,"Marcos Poblacion, Talavera, Nueva Ecija",4113223,REGION III (Central Luzon),NUEVA ECIJA,CABANATUAN CITY,15.5891,120.92
 428,Asia Pacific College Balanga,"Brgy. Ibayo, Balanga City, Bataan",6120290,REGION III (Central Luzon),BATAAN,CITY OF BALANGA (Capital),14.6801,120.537
 429,Mendez Crossing,"Mendez Junction East, Tagaytay City",4134690,REGION IV-A (CALABARZON),CAVITE,TAGAYTAY CITY,14.3353,120.919
 430,Balanga Church,"Lot 928-G-1 JP Rizal St., Balanga City",2375642,REGION III (Central Luzon),BATAAN,CITY OF BALANGA (Capital),14.6792,120.541
 432,Dakota Mansion,"Gen. Malvar cor M. Adriatico St., Ermita, Manila",5261930,NCR - National Capital Region,"NCR, CITY OF MANILA, FIRST DISTRICT",ERMITA,14.5726,120.985
 433,Batangas 3,"Rizal Ave. Poblacion 018, Batangas City",6864280,REGION IV-A (CALABARZON),BATANGAS,BATANGAS CITY (Capital),13.756,121.056
 434,Malibay Plaza 2,Reance Bldg. Jose St. cor Malibay Ave. Pasay City,6512627,NCR - National Capital Region,"NCR, FOURTH DISTRICT",PASAY CITY,14.5343,121.009
 435,Angeles 2,"Miranda St., Angeles City, Pampanga",624117,REGION III (Central Luzon),PAMPANGA,ANGELES CITY,15.1383,120.588
 436,Leveriza,"Quirino Ave. cor Leveriza St., Malate, Manila",9064011,NCR - National Capital Region,"NCR, CITY OF MANILA, FIRST DISTRICT",MALATE,14.5678,120.989
 438,Balanga Plaza,"Aguirre St., Poblacion Balanga, Bataan",6120294,REGION III (Central Luzon),BATAAN,CITY OF BALANGA (Capital),14.68,120.528
 439,Porta Vaga,"Fr. Carlu Street, Baguio City",4426728,CAR - Cordillera Administrative Region,BENGUET,BAGUIO CITY,16.4122,120.598
 440,Total Corporate,"Triangle Dr. Global City, Fort Bonifacio,taguig",7999102,NCR - National Capital Region,"NCR, FOURTH DISTRICT",TAGUIG CITY,14.5606,121.056
 443,Olongapo Cityhall,"East Bajac-Bajac, Olongapo City",6110157,REGION III (Central Luzon),ZAMBALES,OLONGAPO CITY,14.8421,120.288
 444,Calamba 4 ( Carolina Center ),"National Hiway cor Ipil-Ipil St., Calamba, Laguna",5451777,REGION IV-A (CALABARZON),LAGUNA,CITY OF CALAMBA,14.1956,121.164
 445,NE Pacific (ACC Properties),"Maharlika Hiway, Cabanatuan City",3290125,REGION III (Central Luzon),NUEVA ECIJA,CABANATUAN CITY,15.4587,120.95
 446,Paniqui,"National Highway, Brgy. Estacion, Paniqui, Tarlac",320013700,REGION III (Central Luzon),TARLAC,CITY OF TARLAC (Capital),15.6725,120.585
 447,Kimston,Brgy. Pinagkaisahan. Makati City,8997264,NCR - National Capital Region,"NCR, FOURTH DISTRICT",CITY OF MAKATI,14.5595,121.041
 448,Pavillion Mall,"Pavillion Mall, Bi¿an, Laguna",4112709,REGION IV-A (CALABARZON),LAGUNA,BIÑAN,14.3279,121.088
 449,Eastwood 2 (One Orchard),"Orchad Rd. Easwood City Bagumbayan, Quezon City",6662762,NCR - National Capital Region,"NCR, SECOND DISTRICT",QUEZON CITY,14.6108,121.079
 450,PWU,"Leon Guinto Street, Malate, Manila",5232189,NCR - National Capital Region,"NCR, CITY OF MANILA, FIRST DISTRICT",MALATE,14.574,120.99
 451,Civic Prime,"filinvest corporate city,alabang, muntinlupa",6591353,NCR - National Capital Region,"NCR, FOURTH DISTRICT",CITY OF MUNTINLUPA,14.4184,121.043
 452,Pio del Pilar,"Pasong Tamo cor dela rosa Street, Makati City",2170368,NCR - National Capital Region,"NCR, FOURTH DISTRICT",CITY OF MAKATI,14.5583,121.013
 453,Tayabas,"Quezon Ave., cor Paterno St., Tayabas, Quezon",7932686,REGION IV-A (CALABARZON),QUEZON,CITY OF TAYABAS,14.025,121.592
 454,Cogeo,Marcos Hiway cor GSIS Antipolo Rizal,2170927,REGION IV-A (CALABARZON),RIZAL,CITY OF ANTIPOLO,14.6211,121.169
 455,Pearl Drive 2,"Pearl Drive Ortigas Ctr, Pasig City",9145151,NCR - National Capital Region,"NCR, SECOND DISTRICT",CITY OF PASIG,14.5822,121.061
 456,Sariaya,Gen. Luna st National Hiway Sariaya Quezon,6512627,REGION IV-A (CALABARZON),QUEZON,SARIAYA,13.9648,121.529
 458,San Marcelino,"710 San Marcelino St., Ermita, Manila",4841124,NCR - National Capital Region,"NCR, CITY OF MANILA, FIRST DISTRICT",ERMITA,14.5884,120.985
 459,Palapala,"Sampaloc 1, Palapala, Dasmarinas, Cavite",8522878,REGION IV-A (CALABARZON),CAVITE,DASMARIÑAS,14.3027,120.954
 460,Telus,"G/F Telus Bldg, Araneta Ctr, Cubao Quezon City",7091963,NCR - National Capital Region,"NCR, SECOND DISTRICT",QUEZON CITY,14.6188,121.054
 462,Gen T. De Leon,Gen. T. De Leon st. Valenzuela City,2931621,NCR - National Capital Region,"NCR, THIRD DISTRICT",CITY OF VALENZUELA,14.6865,120.995
 464,OsMak,"Sampaguita cor. Escarlata, Pembo Makati City",7387193,NCR - National Capital Region,"NCR, FOURTH DISTRICT",CITY OF MAKATI,14.5463,121.061
 465,Taal Proper,Poblacion 3 Taal ProperTaal Batangas,4211742,REGION IV-A (CALABARZON),BATANGAS,TAAL,14.0697,121.326
 466,Sterling Centre,"dela rosa st, legaspi villagge makati city",7526910,NCR - National Capital Region,"NCR, FOURTH DISTRICT",CITY OF MAKATI,14.5578,121.017
 469,Sta. Rosa N.E.,"Maharlika Hiway Sta Rosa, N.E.",9401517,REGION III (Central Luzon),NUEVA ECIJA,CABANATUAN CITY,15.4235,120.938
 470,Balanga Kapitolyo,Capitol Drive Balanga Bataan,0932,REGION III (Central Luzon),BATAAN,CITY OF BALANGA (Capital),14.6761,120.531
 471,Valenzuela Exit,"Maysan Road Paso de Blas, Valenzuela City",2170365,NCR - National Capital Region,"NCR, THIRD DISTRICT",CITY OF VALENZUELA,14.7079,120.992
 472,Nuvali,"Nuvali Technopod, Sta. Rosa, Laguna",8522797,REGION IV-A (CALABARZON),LAGUNA,CITY OF SANTA ROSA,14.2403,121.058
 474,Wynsum,22 Ortigas Rd. Ortigas Ctr Pasig City,9105463,NCR - National Capital Region,"NCR, SECOND DISTRICT",CITY OF PASIG,14.5857,121.061
 476,Mayapa,"Brgy. Paciano Rizal, Calamba City, Laguna",5025167,REGION IV-A (CALABARZON),LAGUNA,CITY OF CALAMBA,14.2184,121.141
 478,J. P. Rizal 2,"Rizal Avenue, cor Pasong Tamo Avenue, Makati City",2175947,NCR - National Capital Region,"NCR, FOURTH DISTRICT",CITY OF MAKATI,14.57,121.015
 480,Philtranco,"610 Apelo Cruz St., Pasay City",7998207,NCR - National Capital Region,"NCR, FOURTH DISTRICT",PASAY CITY,14.5375,121.005
 481,Net Plaza,"Unit 14 E-Sqre Zn,Cres. Park West,Glob City Taguig",2173321,NCR - National Capital Region,"NCR, FOURTH DISTRICT",TAGUIG CITY,14.5555,121.043
 482,Villa Amparo,"Villa Amparo Subd., Aguinaldo Hway, Imus Cavite",8755441,REGION IV-A (CALABARZON),CAVITE,IMUS,14.4132,120.941
 484,Batangas Port,Port Access Road Brgy Calicanto Batangas City,7222131,REGION IV-A (CALABARZON),BATANGAS,BATANGAS CITY (Capital),13.7548,121.042
 486,Alabang Med (Aurora),"Alabang Zapote Road, Muntinlupa City",7381032,NCR - National Capital Region,"NCR, FOURTH DISTRICT",CITY OF MUNTINLUPA,14.4275,121.024
 487,Vista Verde (V-Square),"Vista Verde Ave., Pasig City",6816931,NCR - National Capital Region,"NCR, SECOND DISTRICT",CITY OF PASIG,14.6041,121.106
 489,Ecoplaza (Ecotech),"Pasong Tamo Extension, Makati City",6594292,NCR - National Capital Region,"NCR, FOURTH DISTRICT",CITY OF MAKATI,14.5334,121.022
 490,12th Ave. (Big Bobs),"Rizal Ave., Brgy Grace Park, Caloocan City",4750617,NCR - National Capital Region,"NCR, THIRD DISTRICT",CALOOCAN CITY,14.6558,120.984
 493,San Pablo 5,"Brgy 6A, Mabini St., San Pablo City, Laguna",5627639,REGION IV-A (CALABARZON),LAGUNA,SAN PABLO CITY,14.0744,121.325
 494,Los Banos 2,"Brgy. Malaking Bato, Los Banos, Laguna",5011172,REGION IV-A (CALABARZON),LAGUNA,LOS BAÑOS,14.1728,121.243
 496,Tordesillas (Gervel Inc.),"cor. Gallardo St. Salcedo Village, Makati City",2170926,NCR - National Capital Region,"NCR, FOURTH DISTRICT",CITY OF MAKATI,14.5605,121.021
 500,Binondo ( Burke Plaza ),Santo Cristo cor. San Fernando St. Binondo,5674748,NCR - National Capital Region,"NCR, CITY OF MANILA, FIRST DISTRICT",BINONDO,14.5995,120.973
 501,Sto. Domingo ( Navarro Property ),McArthur Hiway cor. Apo rd. Sto. Domingo Angeles,6253927,REGION III (Central Luzon),PAMPANGA,ANGELES CITY,15.1244,120.598
 502,Rockwell Business Center,Tower 2 Level 1 Unit No. N-02 Rockwell Business,5426562,NCR - National Capital Region,"NCR, SECOND DISTRICT",CITY OF PASIG,14.5903,121.068
 503,Centris 1 ( Cyperpod ),G/F Eton Cyperpod Centris EDSA Quezon City,4416798,NCR - National Capital Region,"NCR, SECOND DISTRICT",QUEZON CITY,14.6428,121.039
 504,Paragon Plaza,"Paragon Plaza Condominium, Mandaluyong City",4701848,NCR - National Capital Region,"NCR, SECOND DISTRICT",CITY OF MANDALUYONG,14.5763,121.051
 505,Makati Ave. 2,Makati Ave. cor constellation St. Makati City,4820962,NCR - National Capital Region,"NCR, FOURTH DISTRICT",CITY OF MAKATI,14.5638,121.029
 506,Ascendas,Ascendas Tower 1 Unit GF-01 30th St. Taguig City,2179148,NCR - National Capital Region,"NCR, FOURTH DISTRICT",TAGUIG CITY,14.5537,121.045
 508,Heart Center,"Philippine Heart Center, East Avenue, Quezon City",4345701,NCR - National Capital Region,"NCR, SECOND DISTRICT",QUEZON CITY,14.6435,121.048
 509,Woodlands,G/F Pioneer Woodlands EDSA Mandaluyong City,4807345,NCR - National Capital Region,"NCR, SECOND DISTRICT",CITY OF MANDALUYONG,14.5736,121.048
 510,LKG,11/F LKG Tower 6801-6803 Ayala Ave. Makati City,2175942,NCR - National Capital Region,"NCR, FOURTH DISTRICT",CITY OF MAKATI,14.5594,121.017
 512,Philam,"9/F Philam Life Bldg. Paseo de Roxas, Makati City",,NCR - National Capital Region,"NCR, FOURTH DISTRICT",CITY OF MAKATI,14.5574,121.022
 513,One Solaris,One Solaris Bldg Dela Rosa St Makati City,2173319,NCR - National Capital Region,"NCR, FOURTH DISTRICT",CITY OF MAKATI,14.5577,121.017
 515,Castillejos,"San Juan,Castillejos, Zambales",0922,REGION III (Central Luzon),ZAMBALES,CASTILLEJOS,14.9329,120.201
 516,NE Crossing,"Sangitan East, Cabanatuan City",0932,REGION III (Central Luzon),NUEVA ECIJA,CABANATUAN CITY,15.4929,120.976
 517,New Port,"Star Cruises Center, Andrews Ave. Pasay City",,NCR - National Capital Region,"NCR, FOURTH DISTRICT",PASAY CITY,14.5191,121.017
 519,UPLB,"University of the Philippines Los Baños, Laguna",,REGION IV-A (CALABARZON),LAGUNA,LOS BAÑOS,14.1634,121.241
 524,R. Papa,813 R.Papa & S.H. Loyola St. Sampaloc Manila,,NCR - National Capital Region,"NCR, CITY OF MANILA, FIRST DISTRICT",SAMPALOC,14.6034,120.988
 525,Munoz 2,Blk 3 lLt7 R. Magsaysay. EDSA- Munoz Quezon City,2173323,NCR - National Capital Region,"NCR, SECOND DISTRICT",QUEZON CITY,14.6577,121.022
 527,Retiro 2,"Amoranto St. Sta. Mesa Heights, Quezon City",5160878,NCR - National Capital Region,"NCR, SECOND DISTRICT",CITY OF PASIG,14.6302,120.996
 528,BPO San Lazaro ( Vertex 1 ),"Retail 4, Vortex 1 Bldg. Yuseco San Lazaro",,NCR - National Capital Region,"NCR, CITY OF MANILA, FIRST DISTRICT",TONDO I / II,14.6196,120.986
 529,Port Area,"637 Bonifacio Drive,Port Area Manila",,NCR - National Capital Region,"NCR, CITY OF MANILA, FIRST DISTRICT",PORT AREA,14.5847,120.974
 530,Net Square,"West, Bonifacio Global Taguig City MM",,NCR - National Capital Region,"NCR, FOURTH DISTRICT",TAGUIG CITY,14.5511,121.046
 531,La Trinidad,"National Road, KM5 La Trinidad, Benguet",4221866,CAR - Cordillera Administrative Region,BENGUET,LA TRINIDAD (Capital),16.4533,120.59
 533,Dagupan 4,"Perez Blvd. Rizal Ext., Dagupan City Pangasinan",,REGION I (Ilocos Region),PANGASINAN,DAGUPAN CITY,16.041,120.34
 534,Eastwood 3,"188 E. Rodriquuez Jr. Ave., Bagumbayan,Q.C",09190000,NCR - National Capital Region,"NCR, SECOND DISTRICT",QUEZON CITY,14.6102,121.082
 536,San Andres,"Mabini cor. San Andres St., Malate Manila",,NCR - National Capital Region,"NCR, CITY OF MANILA, FIRST DISTRICT",MALATE,14.5688,120.985
 541,San Miguel. Poblacion,"Brgy., San Jose San Miguel Bulcan",6782944,REGION III (Central Luzon),BULACAN,SAN MIGUEL,15.1484,120.979
 544,Quirino Ermita,Quirino Ave. cor. Mabini Ave. Malate Manila,,NCR - National Capital Region,"NCR, CITY OF MANILA, FIRST DISTRICT",MALATE,14.5656,120.987
 545,Capas Junction ( Chevron ),"Mc Arthur Hi-way, Capas Tarlac",0942,REGION III (Central Luzon),TARLAC,CAPAS,15.342,120.594
 548,SLEX - NB,"KM 22 SLEX San Antonio, San Pedro Laguna",,REGION IV-A (CALABARZON),LAGUNA,SAN PEDRO,14.3557,121.046
 549,Filinvest,Alabang Zapote Road Filinvest Muntinlupa City,,NCR - National Capital Region,"NCR, FOURTH DISTRICT",CITY OF MUNTINLUPA,14.4236,121.036
 549,Filinvest,Alabang Zapote Road Filinvest Muntinlupa City,,NCR - National Capital Region,"NCR, FOURTH DISTRICT",CITY OF MUNTINLUPA,14.4236,121.036
 552,Malolos Crossing,McArthur Hi-way cor. Mabini St. Malolos Crossing,7605705,REGION III (Central Luzon),BULACAN,CITY OF MALOLOS (Capital),14.8529,120.816
 553,Tustine Alabang,"Molino St. SS Hway, Alabang Muntinlupa City",,NCR - National Capital Region,"NCR, FOURTH DISTRICT",CITY OF MUNTINLUPA,14.4111,121.043
 554,N. Garcia,"158 Jupiter St.cor N. Garcia St.,  Makati City",,NCR - National Capital Region,"NCR, FOURTH DISTRICT",CITY OF MAKATI,14.5623,121.023
 555,C. Raymundo,#64 Stella Mariz cor. c. Raymundo Ave.  Pasig City,6422142,NCR - National Capital Region,"NCR, SECOND DISTRICT",CITY OF PASIG,14.5759,121.085
 556,Batanggas 4,"Manuela Pastor Ave.H/W Pallocan West,Batangas City",,REGION IV-A (CALABARZON),BATANGAS,BATANGAS CITY (Capital),13.7539,121.07
 557,La Salle Med Dasma,Bo. Pasang Tala Dasma Cavite,,REGION IV-A (CALABARZON),CAVITE,DASMARIÑAS,14.327,120.945
 558,Welding Building,"Oppen Bldg.,349 Sen Gil  Puyat Ave., Makati city",,NCR - National Capital Region,"NCR, FOURTH DISTRICT",CITY OF MAKATI,14.5622,121.025
 559,Clark Hostel,"Clark Freeport Zone, Pampanga",4991398,REGION III (Central Luzon),PAMPANGA,ANGELES CITY,15.1811,120.528
 560,San Fernando-NLEX,"Brgy.San Felipe, San Fernando",9637803,REGION III (Central Luzon),PAMPANGA,CITY OF SAN FERNANDO (Capital),15.1294,120.643
 561,Tarlac 2,"Mc Arthur Hi-Way, Tarlac,Tarlac City",459823085,REGION III (Central Luzon),TARLAC,CITY OF TARLAC (Capital),15.4895,120.596
 562,"Daang Sarile, Cabanatuan","Daang Sarile, Cabanatuan City",6002608,REGION III (Central Luzon),NUEVA ECIJA,CABANATUAN CITY,15.5048,120.976
 563,Tarlac Concepcion,Brgy San Nicola Poblacion Concepcion Tarlac,0922,REGION III (Central Luzon),TARLAC,CONCEPCION,15.3238,120.631
 564,Rosario 2,"No.42 Ortigas Ave., Roasio, Pasig City",2179153,NCR - National Capital Region,"NCR, SECOND DISTRICT",CITY OF PASIG,14.5908,121.087
 565,Mabalacat,"Velasquez St., Mabalacat Proper, Pampanga",0943,REGION III (Central Luzon),PAMPANGA,MABALACAT,15.2229,120.574
 567,San Isidro,"No.35 Brgy San Isidro, Cabuyao, Laguna",,REGION IV-A (CALABARZON),LAGUNA,CABUYAO,14.2378,121.134
 568,Camiling,"Arellano St. cor. Quezon Ave., Camilling Tarlac",4914065,REGION III (Central Luzon),TARLAC,CAMILING,15.6866,120.412
 569,Mabolo Bacoor,"Mabolo Bacoor, Cavite",,REGION IV-A (CALABARZON),CAVITE,BACOOR,14.4375,120.905
 570,Wilson,"Wilson cor.,Ortigas San Juan, City",5700258,NCR - National Capital Region,"NCR, SECOND DISTRICT",CITY OF SAN JUAN,14.6006,121.048
 572,Herco Center,"114 Benavidez St., Legaspi Village ,Makati City",,NCR - National Capital Region,"NCR, FOURTH DISTRICT",CITY OF MAKATI,14.5519,121.017
 574,Salawag 2,Paliparan Road Salawag Crossing Dasma Cavite,,REGION IV-A (CALABARZON),CAVITE,DASMARIÑAS,14.3534,120.981
 576,Boni EDSA,"EDSA cor.,Boni Ave.Mandaluyong",5345365,NCR - National Capital Region,"NCR, SECOND DISTRICT",CITY OF MANDALUYONG,14.5724,121.047
 577,Sta Rosa,"Tagaytay Road, Sta Rosa Laguna",,REGION IV-A (CALABARZON),LAGUNA,CITY OF SANTA ROSA,14.2498,121.064
 578,Malanday,Brgy Malanday McArthur H-Way Valenzuela City,0922,NCR - National Capital Region,"NCR, THIRD DISTRICT",CITY OF VALENZUELA,14.4416,121.024
 579,Malinta 2,Danding Blg Cecilio J Santos St. Valenzuela City,0933,NCR - National Capital Region,"NCR, THIRD DISTRICT",CITY OF VALENZUELA,14.6947,120.97
 580,Silver City,"Silver City, Frontera Verde, Ortigas, Pasig City",6503268,NCR - National Capital Region,"NCR, SECOND DISTRICT",CITY OF PASIG,14.5839,121.075
 582,McKinley,"Origas Ave. Mckinley, San Juan",7215740,NCR - National Capital Region,"NCR, SECOND DISTRICT",CITY OF SAN JUAN,14.602,121.047
 585,TRAG,"GL 10 The Residences, Arnaiz St., Makati Citry",,NCR - National Capital Region,"NCR, FOURTH DISTRICT",CITY OF MAKATI,14.5509,121.02
 586,Muzon,Brgy. Muzon San Jose Del Monte Bulacan,0922,REGION III (Central Luzon),BULACAN,CITY OF SAN JOSE DEL MONTE,14.802,121.035
 587,Marvin Plaza,"Chino Roces cor. herrera St., Makati City",,NCR - National Capital Region,"NCR, FOURTH DISTRICT",CITY OF MAKATI,14.5554,121.014
 589,Manila Executive Regency,"Manila Exceutive Regency, Jorge Bacobo St.,Manila",,NCR - National Capital Region,"NCR, CITY OF MANILA, FIRST DISTRICT",MALATE,14.5786,120.982
 590,Kingswood,"U/ GF Kingswood Vito Cruz Ext., Cor. Makati City",,NCR - National Capital Region,"NCR, FOURTH DISTRICT",CITY OF MAKATI,14.5668,121.012
 591,Malolos Tikay,"McArthur Hi-way, Tikay Malolos Bulacan",8166760,REGION III (Central Luzon),BULACAN,CITY OF MALOLOS (Capital),14.8391,120.859
 592,Sampol,"Brgy. Bagong buhay, San Jose Del Monte, Bulacan",0923,REGION III (Central Luzon),BULACAN,CITY OF SAN JOSE DEL MONTE,14.8574,121.056
 594,Victoria De Manila,"G/F Victoria De Manila, Taft Avenue",,NCR - National Capital Region,"NCR, CITY OF MANILA, FIRST DISTRICT",MALATE,14.575,120.989
 596,San Pascual Batanggas,San Pascual Batanggas,,REGION IV-A (CALABARZON),BATANGAS,SAN PASCUAL,13.7822,121.031
 599,Burnham,"Chanum cor., Otek St., Burnham Park, Baguio City",4424741,CAR - Cordillera Administrative Region,BENGUET,BAGUIO CITY,16.4128,120.593
 603,Fortune Square,"Brgy. Saguin, San Fernando, Pampanga",4552816,REGION III (Central Luzon),PAMPANGA,CITY OF SAN FERNANDO (Capital),15.1006,120.62
 604,Dewey Ave.,"Lot 2, Blk.18, Dewey Ave., Subic Bay Freeport Zone",2500944,REGION III (Central Luzon),ZAMBALES,SUBIC,14.8189,120.281
 605,Molino 5,Molino Road Brgy Molino III Bacoor Cavite,,REGION IV-A (CALABARZON),CAVITE,BACOOR,14.4423,120.972
 606,Diamond Square,"Charlotte St. Balibago, Angeles Pampanga",0922,REGION III (Central Luzon),PAMPANGA,ANGELES CITY,15.1648,120.591
 607,The Enclave,"Fil-Am Friendship Hi-way, Pampanga, Angeles City",6246322,REGION III (Central Luzon),PAMPANGA,ANGELES CITY,15.1434,120.559
 608,Zaragosa,"Corner Concepcion,Zaragosa Nueva Ecija",0932,REGION III (Central Luzon),NUEVA ECIJA,ZARAGOZA,15.4519,120.805
 610,Olongapo Public Market,"Canda St., East Bajac-Bajac,Olongapo City",2230001,REGION III (Central Luzon),ZAMBALES,OLONGAPO CITY,14.8396,120.961
 611,San Marcelino,Brgy Central San Marcelino Zambales,0922,REGION III (Central Luzon),ZAMBALES,SAN MARCELINO,14.9745,120.156
 612,Imus Pag-Asa,National Road Cor Alapan St. Pagasa Imus Cavite,,REGION IV-A (CALABARZON),CAVITE,IMUS,14.4408,120.911
 613,Baliuag Hi-way,"Dona Remedios Hiway,Baliuag Bulacan",0923,REGION III (Central Luzon),BULACAN,BALIUAG,14.9509,120.884
 614,Bansalangin,"Project 7, Quezon City, Metro Manila",3524617,NCR - National Capital Region,"NCR, SECOND DISTRICT",QUEZON CITY,14.6558,121.024
 615,San Pedro 5,"Garcia St. Nueva (Poblacion), San Pedro, Laguna",,REGION IV-A (CALABARZON),LAGUNA,SAN PEDRO,14.362,121.057
 616,Engineers Hill,"Nevada Road and Guinto Alley, Baguio City",4420742,CAR - Cordillera Administrative Region,BENGUET,BAGUIO CITY,16.4078,120.603
 617,Grandview Angeles,"Lot 19-B, Don Juico Ave., Malabanas, Angeles City",6280216,REGION III (Central Luzon),PAMPANGA,ANGELES CITY,15.166,120.57
 618,Angelo King,"Along Arellano Ave., Malate, Manila",,NCR - National Capital Region,"NCR, CITY OF MANILA, FIRST DISTRICT",MALATE,14.5669,120.998
 619,Buendia 4,"317 Buendia Ave., Pasay City",,NCR - National Capital Region,"NCR, FOURTH DISTRICT",PASAY CITY,14.5545,120.998
 620,FVR,"Sapang Palay, San Jose  Del Monte City,",0933,REGION III (Central Luzon),BULACAN,CITY OF SAN JOSE DEL MONTE,14.8527,121.062
 621,Lifehomes,"Alfonso St. Brgy. Rosario, Pasig City",0932,NCR - National Capital Region,"NCR, SECOND DISTRICT",CITY OF PASIG,14.59,121.095
 624,Tagaytay 4,E.Aguinaldo H-Way Tagaytay City,,REGION IV-A (CALABARZON),CAVITE,TAGAYTAY CITY,14.1223,120.96
 625,JP Laurel Malate,"G/F JP Laurel Mem Bldg,Ped Gil St.Ermita,Manila",,NCR - National Capital Region,"NCR, CITY OF MANILA, FIRST DISTRICT",ERMITA,14.5734,120.982
 627,BSA Tower,No. 108 Legaspi Street Legaspi Village Makati City,,NCR - National Capital Region,"NCR, FOURTH DISTRICT",CITY OF MAKATI,14.5539,121.022
 628,Subic International Hotel,SIH Freeport Zone Subic Bay Olongapo City,0928,REGION III (Central Luzon),ZAMBALES,SUBIC,14.8238,120.279
 629,Pansol Calamba,Purok 1 Pansol Calamba City Laguna,,REGION IV-A (CALABARZON),LAGUNA,CITY OF CALAMBA,14.1817,121.177
 630,Mayfair,"Unit C Mayfair Tower, U.N Avenue, Ermita, Manila",,NCR - National Capital Region,"NCR, CITY OF MANILA, FIRST DISTRICT",ERMITA,14.5801,120.981
 632,Sixto A.Ave.(Hampton Garden),Dr Sixto Antonio Ave Maybunga Pasig City,0917,NCR - National Capital Region,"NCR, SECOND DISTRICT",CITY OF PASIG,14.5795,121.083
 635,Noveleta,"Poblacion, Noveleta, Cavite City",,REGION IV-A (CALABARZON),CAVITE,CAVITE CITY,14.4282,120.881
 636,Betterliving,"Betterliving Subd., Don Bosco, Para¿aque City",,NCR - National Capital Region,"NCR, FOURTH DISTRICT",CITY OF PARAÑAQUE,14.4854,121.04
 638,Carmelray,"Carmelray Industrial Park 2, Calamba, Laguna",,REGION IV-A (CALABARZON),LAGUNA,CITY OF CALAMBA,14.1711,121.134
 641,Espana Grand,"España cor., Tolentino cor., Eloisa, Metro Manila",,NCR - National Capital Region,"NCR, CITY OF MANILA, FIRST DISTRICT",ERMITA,14.6065,120.989
 643,EDSA Grand,EDSA cor Corregidor St Bago Bantay QC,5462701,NCR - National Capital Region,"NCR, SECOND DISTRICT",QUEZON CITY,14.6573,121.024
 644,Citrus,Brgy Minuyan San Jose Del Monte Bulacan,0922,REGION III (Central Luzon),BULACAN,CITY OF SAN JOSE DEL MONTE,14.8122,121.046
 645,MCU 3,EDSA Cor Serrano Ave Caloocan City,2637381,NCR - National Capital Region,"NCR, THIRD DISTRICT",CALOOCAN CITY,14.6566,120.988
 646,Pulilan (Castillo),"National Rd., Brgy., Pobalcion, Pulilan Bulacan",0923,REGION III (Central Luzon),BULACAN,PULILAN,14.9003,120.85
 649,St. Francis Tower,"St. Francis Drive, Ortigas Center, Pasig City",2637388,NCR - National Capital Region,"NCR, SECOND DISTRICT",CITY OF PASIG,14.5797,121.057
 650,Sienna del Monte,"Barangay Manresa, SFDM, Quezon City",4138095,NCR - National Capital Region,"NCR, SECOND DISTRICT",QUEZON CITY,14.639,121.006
 652,Lagro,"Lagro Subd., Novaliches, Quezon City",4176874,NCR - National Capital Region,"NCR, SECOND DISTRICT",QUEZON CITY,14.7346,121.068
 653,Bacoor 2,"141 Evangelista St., Daang Bukid, Bacoor, Cavite",,REGION IV-A (CALABARZON),CAVITE,BACOOR,14.4579,120.937
 654,Paniqui 2 (Tiansing Property),MH Del Pilar Paniqui Tarlac,0922,REGION III (Central Luzon),TARLAC,PANIQUI,15.6684,120.577
 656,Marquinton Cordova Tower,"Marquinton Cordova Tower, Marikina City",2637394,NCR - National Capital Region,"NCR, SECOND DISTRICT",CITY OF MARIKINA,14.6353,121.101
 657,G. Tuazon 2,"1850 G. Tuazon St., Sampaloc, Manila",,NCR - National Capital Region,"NCR, CITY OF MANILA, FIRST DISTRICT",SAMPALOC,14.6033,120.996
 659,Lung Center,Lung Center of the Phil Quezon Ave Quezon City,3764406,NCR - National Capital Region,"NCR, SECOND DISTRICT",QUEZON CITY,14.6477,121.046
 660,Scout Tobias,26 Timog Avenue Sct Tobias St Bgy Laging Handa QC,4820914,NCR - National Capital Region,"NCR, SECOND DISTRICT",QUEZON CITY,14.6356,121.031
 661,Tarlac Crossing,"Poblacion 2, Tarlac City",0921,REGION III (Central Luzon),TARLAC,CITY OF TARLAC (Capital),15.4872,120.596
 662,Lingayen 2,"Artancho and Alvear Sts., Lingayen, Pangasinan",0922,REGION I (Ilocos Region),PANGASINAN,LINGAYEN (Capital),16.0301,120.228
 663,Moriones (King Palace),577 Moriones St.Tondo Manila,,NCR - National Capital Region,"NCR, CITY OF MANILA, FIRST DISTRICT",TONDO I / II,14.6101,120.968
 664,Tejeron (Esway Residence),Tejeron St Sta. Ana Manila,,NCR - National Capital Region,"NCR, CITY OF MANILA, FIRST DISTRICT",SANTA ANA,14.5764,121.011
 665,A.Mabini (Guerrero Apartment),A.Mabini St. Malate Manila,,NCR - National Capital Region,"NCR, CITY OF MANILA, FIRST DISTRICT",MALATE,14.5711,120.983
 668,V. Santos,"16 V. Santos, Sto. Ni¿o, Marikina City",9415607,NCR - National Capital Region,"NCR, SECOND DISTRICT",CITY OF MARIKINA,14.6406,121.101
 669,City Oil Fairview,"Commonwealth Ave, Pearl St., Fairview Quezon City",0923,NCR - National Capital Region,"NCR, SECOND DISTRICT",QUEZON CITY,14.7059,121.073
 670,Mercedes (One Evergreen),"Evergreen 101, San Miguel Pasig City",0918,NCR - National Capital Region,"NCR, SECOND DISTRICT",CITY OF PASIG,14.5665,121.062
 672,Bauan 2,Manghinao Proper Bauan Batangas,,REGION IV-A (CALABARZON),BATANGAS,BAUAN,14.2727,121.455
 673,Burke Quintin Paredes,Quintin Paredes Binondo Manila,,NCR - National Capital Region,"NCR, CITY OF MANILA, FIRST DISTRICT",BINONDO,14.5997,120.975
 674,Zapanta,Santa Rita St. Makati City,,NCR - National Capital Region,"NCR, FOURTH DISTRICT",CITY OF MAKATI,14.5597,121.044
 675,Patts,"Dr. A. Santos Ave., San Isidro, Para¿aque City",,NCR - National Capital Region,"NCR, FOURTH DISTRICT",CITY OF PARAÑAQUE,14.4726,121.005
 676,Rivercity (Lui Bldg.),Carreon St. Sta. Ana Manila,,NCR - National Capital Region,"NCR, CITY OF MANILA, FIRST DISTRICT",SANTA ANA,14.5809,121.007
 677,Tugatog,M..H del Pilar Rd Puresa St Tugatog Malabon City,4751074,NCR - National Capital Region,"NCR, THIRD DISTRICT",CITY OF MALABON,14.6617,120.97
 678,Xevera,Brgy Tabun Mac Arthur Highway Mabalacat Pampanga,0932,REGION III (Central Luzon),PAMPANGA,MABALACAT,15.2444,120.564
 680,Taytay 3 (Muzon),Manila East Rd  Brgy Muzon Taytay Rizal,2455467,REGION IV-A (CALABARZON),RIZAL,TANAY,14.5437,121.144
 681,DENR Bldg.,"DENR Bldg. ,1515 Roxas Blvd., Manila",,NCR - National Capital Region,"NCR, CITY OF MANILA, FIRST DISTRICT",ERMITA,14.5736,120.981
 682,Lucao (Dagupan City),National Road Dagupan City Pangasinan,0932,REGION I (Ilocos Region),PANGASINAN,DAGUPAN CITY,16.0206,120.322
 684,Escoda (Site Building),Leon Guinto St corner Escoda St Manila,,NCR - National Capital Region,"NCR, CITY OF MANILA, FIRST DISTRICT",MALATE,14.574,120.99
 685,Friendship Hi-Way (Moon Tae Park),Friendship H-Way Brgy. Anunas Angeles City,4250105,REGION III (Central Luzon),PAMPANGA,ANGELES CITY,15.1597,120.556
 686,Lubao Pampanga,JP Rizal St Sta Cruz Lubao Pampanga,0922,REGION III (Central Luzon),PAMPANGA,LUBAO,14.912,120.565
 688,Cabanas Mall,McArthur H-Way Brgy. Longos City of Malolos,7687404,REGION III (Central Luzon),BULACAN,CITY OF MALOLOS (Capital),14.8748,120.797
 689,Burnham Park (Clemente Commercial Center),Shanum St. Burnham Park Baguio City,4245753,CAR - Cordillera Administrative Region,BENGUET,BAGUIO CITY,16.4111,120.592
 694,Pili,"Santiago St. Brgy. San Vicente,Pili, Camarines Sur",,REGION V (Bicol Region),CAMARINES SUR,PILI (Capital),13.5539,123.275
 696,Betterliving 4  (Caltex Dona),"Better Living Subdivision, Paranaque City",,NCR - National Capital Region,"NCR, FOURTH DISTRICT",CITY OF PARAÑAQUE,14.4836,121.033
 697,Bayambang,"Royal Mall, Bayambang Pangasinan",0932,REGION I (Ilocos Region),PANGASINAN,BAYAMBANG,15.8097,120.457
 698,4th Avenue (Enriquez Property),"Grace Park, Caloocan City",4427251,NCR - National Capital Region,"NCR, THIRD DISTRICT",CALOOCAN CITY,14.6434,120.98
 699,Dagupan 5,"Burgos St.,Bonifacio St. Dagupan City, Pangasinan",0933,REGION I (Ilocos Region),PANGASINAN,DAGUPAN CITY,16.0417,120.334
 701,Sanrise,"2164 M. H. Del Pilar St., Malate, Manila",,NCR - National Capital Region,"NCR, CITY OF MANILA, FIRST DISTRICT",MALATE,14.5654,120.986
 703,Mckinley Hill 1820,Upper mckinley road mckinley hills taguig city,,NCR - National Capital Region,"NCR, FOURTH DISTRICT",TAGUIG CITY,14.5349,121.049
 704,Mindanao Ave,"Mindanao Avenue Talipapa, Novaliches, Quezon City",3325216,NCR - National Capital Region,"NCR, SECOND DISTRICT",QUEZON CITY,14.6904,121.028
 705,CWC,"Cadlan Municipality of Pili, Camarines Sur",,REGION V (Bicol Region),CAMARINES SUR,PILI (Capital),13.5967,123.257
 706,Aria,"Real cor. Aria Sts., Las Pinas City",,NCR - National Capital Region,"NCR, FOURTH DISTRICT",CITY OF LAS PIÑAS,14.4479,120.985
 707,Concepcion Uno,Bayan Bayanan Avenue Bgy Concepcion Marikina City,5849615,NCR - National Capital Region,"NCR, SECOND DISTRICT",CITY OF MARIKINA,14.6505,121.106
 708,Northwalk Clark,"Friendship Gate, Clark Freeport Zone, Angeles City",0942,NCR - National Capital Region,"NCR, SECOND DISTRICT",QUEZON CITY,15.1854,120.539
 709,Caltex  Balibago,Balibago cor. San Lorenzo Rd. Sta. Rosa Laguna,,REGION IV-A (CALABARZON),LAGUNA,CITY OF SANTA ROSA,14.2889,121.095
 711,Tanauan 2,"Brgy. Darasa, Tanauan City, Batangas",,REGION IV-A (CALABARZON),BATANGAS,CITY OF TANAUAN,14.0738,121.151
 712,Cardinal,"Medical Arts Bldg., Cardinal Santos Medical Ctr.",2637383,NCR - National Capital Region,"NCR, SECOND DISTRICT",CITY OF SAN JUAN,14.5983,121.046
 713,Suburbia,Brgy. Maimpis San Fernando Pampanga,8610210,REGION III (Central Luzon),PAMPANGA,CITY OF SAN FERNANDO (Capital),15.0676,120.65
 714,Systems Plus Angeles,Diamond Service Rd. McArthur Hiway Angeles,0933,REGION III (Central Luzon),PAMPANGA,ANGELES CITY,15.1587,120.592
 715,One Archers Place,"One Archers Place Taft Avenue, Malate, Manila",,NCR - National Capital Region,"NCR, CITY OF MANILA, FIRST DISTRICT",MALATE,14.5668,120.993
 716,Tumana Marikina,"Farmers Ave cor JP Rizal St., Concepcion, Marikina",0933,NCR - National Capital Region,"NCR, SECOND DISTRICT",CITY OF MARIKINA,14.6532,121.103
 720,El Jardin de Presidente,Sgt Esguerra St Quezon City,0998,NCR - National Capital Region,"NCR, SECOND DISTRICT",QUEZON CITY,14.6379,121.039
 721,San Mateo,103 Gen Luna Ave Gitnang Daan I San Mateo Rizal,6613873,REGION IV-A (CALABARZON),RIZAL,SAN MATEO,14.7081,121.118
 722,Alimall 2,"G/F Alimall, P. Tuazon, Araneta Center,Q.C",4418336,NCR - National Capital Region,"NCR, SECOND DISTRICT",QUEZON CITY,14.619,121.057
 723,Angono 2,Manila East Road cor Guido Street Angono Rizal,0933,REGION IV-A (CALABARZON),RIZAL,ANGONO,14.5259,121.158
 725,Bagong Ilog,E Rodriguez Ave cor Sta Rosa St Bagong Ilog Pasig,2340204,NCR - National Capital Region,"NCR, SECOND DISTRICT",CITY OF PASIG,14.5665,121.071
 726,Paliparan,"Mabuhay City, Paliparan, Dasmarinas, Cavite",,REGION IV-A (CALABARZON),CAVITE,DASMARIÑAS,14.3198,120.995
 727,Agoo,"16 Mac Arthur Highway, Agoo, La Union",0932,REGION I (Ilocos Region),LA UNION,AGOO,16.3248,120.367
 728,University of Baguio (PSD Pharmacy),"FB building Assumption Road, Baguio City",4422003,CAR - Cordillera Administrative Region,BENGUET,BAGUIO CITY,16.4156,120.598
 729,Anabu Kostal,"Aguinaldo Highway, Anabu II, Imus, Cavite",,REGION IV-A (CALABARZON),CAVITE,IMUS,14.3759,120.939
 732,Bauang Lu,"Central East, Bauang, La Union",0923,REGION I (Ilocos Region),LA UNION,BAUANG,16.5316,120.332
 736,F. Tanedo 1,F Tanedo St San Nicolas Tarlac City,0923,REGION III (Central Luzon),TARLAC,CITY OF TARLAC (Capital),15.4959,120.596
 737,San Roque Tarlac,Brgy San Roque Tarlac Tarlac City,0925,REGION III (Central Luzon),TARLAC,CITY OF TARLAC (Capital),15.484,120.591
 743,Pulong Buhangin,Brgy Pulong Buhangin Sta Maria Bulacan,0932,REGION III (Central Luzon),BULACAN,SANTA MARIA,14.8659,120.996
 744,F. Manalo,F Blumentritt cor F Manalo San Juan City,6552245,NCR - National Capital Region,"NCR, SECOND DISTRICT",CITY OF SAN JUAN,14.5956,121.028
 747,Lyceum Intramuros,465 Muralla corner Real St Intramuros Manila,,NCR - National Capital Region,"NCR, CITY OF MANILA, FIRST DISTRICT",INTRAMUROS,14.5922,120.978
 748,Camp John Hay,Space 4 Baguio Technohub Camp John Hay Baguio,0923,CAR - Cordillera Administrative Region,BENGUET,BAGUIO CITY,16.3988,120.609
 749,Two E-Com Center,Ocean Drive Mall of Asia Complex Pasay City,,NCR - National Capital Region,"NCR, FOURTH DISTRICT",PASAY CITY,14.5398,120.981
 750,Mabini Soldado,A Mabini St cor Soldado St Ermita Manila,,NCR - National Capital Region,"NCR, CITY OF MANILA, FIRST DISTRICT",ERMITA,14.5745,120.983
 751,Emar Suites,409 Shaw Boulevard Mandaluyong City,6546489,NCR - National Capital Region,"NCR, SECOND DISTRICT",CITY OF MANDALUYONG,14.5896,121.039
 753,F Tanedo 2,F. Tanedo St Tarlac City,0925,REGION III (Central Luzon),TARLAC,CITY OF TARLAC (Capital),15.4875,120.589
 754,Mines View Plaza,"Outlook Drive, Mines View Park, Baguio City",0943,CAR - Cordillera Administrative Region,BENGUET,BAGUIO CITY,16.4194,120.627
 758,Dalandanan,Brgy Dalandanan Lazaro St McArthur Valenzuela City,0932,NCR - National Capital Region,"NCR, THIRD DISTRICT",CITY OF VALENZUELA,14.7078,120.959
 759,CDC Clark,Aguinaldo Avenue Quirino St Clark Freeport Zone,4993071,REGION III (Central Luzon),PAMPANGA,ANGELES CITY,15.1774,120.519
 760,Comembo,Gf Unit C Comembo Commercial Complex Makati City,6978414,NCR - National Capital Region,"NCR, FOURTH DISTRICT",CITY OF MAKATI,14.5479,121.063
 761,Naga 2,2 Ateneo Ave cor Bagumbayan St Naga City,,REGION V (Bicol Region),CAMARINES SUR,NAGA CITY,13.6295,123.187
 762,Supercenter,GF Supercenter Araneta Center Quezon City,0915,NCR - National Capital Region,"NCR, SECOND DISTRICT",QUEZON CITY,14.6212,121.055
 763,Manhattan,Gf Manhattan Parkway Araneta Center Quezon City,0932,NCR - National Capital Region,"NCR, SECOND DISTRICT",QUEZON CITY,14.6234,121.055
 764,CARLUYAN N. U.,MF Jhocson St Sampaloc Manila,,NCR - National Capital Region,"NCR, CITY OF MANILA, FIRST DISTRICT",SAMPALOC,14.6047,120.995
 766,K Zone,"NIA-PDEA cor., EDSA Brgy Pinyahan, Quezon City",7364010,NCR - National Capital Region,"NCR, SECOND DISTRICT",QUEZON CITY,14.577,121.051
 769,San Fernando 3,Gen Hizon Ave San Fernando Pampanga,0998,REGION III (Central Luzon),PAMPANGA,CITY OF SAN FERNANDO (Capital),15.0258,120.695
 770,Manila City Hall,Godino Tower 350 A Villegas St Ermita Manila,,NCR - National Capital Region,"NCR, CITY OF MANILA, FIRST DISTRICT",ERMITA,14.5891,120.982
 772,Tanay 2,Ft Catapusan St Plaza Aldea Tanay Rizal,6973426,REGION IV-A (CALABARZON),RIZAL,TANAY,14.4947,121.29
 773,Raon,Quezon Blvd cor Gonzalo Puyat Raon Quiapo Manila,,NCR - National Capital Region,"NCR, CITY OF MANILA, FIRST DISTRICT",QUIAPO,14.6007,120.985
 776,CBD Hotel (Naga Terminal),Gf Cbd II Hotel Brgy Triangulo Naga City,,REGION V (Bicol Region),CAMARINES SUR,NAGA CITY,13.6193,123.189
 779,Sta Quiteria (Guilalas Property),Sta Quiteria Caloocan City,2938577,NCR - National Capital Region,"NCR, THIRD DISTRICT",CALOOCAN CITY,14.681,121.01
 780,Pulang Lupa Dos,Naga Road Joseph Ave Pulang Lupa Dos Las Pinas,,NCR - National Capital Region,"NCR, FOURTH DISTRICT",CITY OF LAS PIÑAS,14.4611,120.986
 783,Divine Mercy,Marilao Muzon Road brgy Sta Rosa I Marilao Bulacan,0906,REGION III (Central Luzon),BULACAN,MARILAO,14.779,120.974
 784,Teresa,Magsaysay Ave Brgy San Gabriel Teresa Rizal,0943,REGION IV-A (CALABARZON),RIZAL,TERESA,14.5583,121.211
 786,BF Homes 3,Bf Homes Aguirre Ave cor Elizalde Paranaque City,,NCR - National Capital Region,"NCR, FOURTH DISTRICT",CITY OF PARAÑAQUE,14.45,121.018
 788,SLU Baguio,A Bonifacio Ave Baguio City,4422645,CAR - Cordillera Administrative Region,BENGUET,BAGUIO CITY,16.4195,120.597
 789,CALTEX BSU,Caltex Gas Station Bgy Guinhawa Malolos Bulacan,7945962,REGION III (Central Luzon),BULACAN,CITY OF MALOLOS (Capital),14.8565,120.813
 790,Sta Cruz 2,Sitio Sampaguita Brgy Bubukal Sta Cruz Laguna,,REGION IV-A (CALABARZON),LAGUNA,SANTA CRUZ (Capital),14.2618,121.404
 791,Imus 4,Buhay na Tubig Imus Cavite,,REGION IV-A (CALABARZON),CAVITE,IMUS,14.4068,120.957
 792,Sta Monica,Sta Monica LM Guerrero St Ermita Manila,,NCR - National Capital Region,"NCR, CITY OF MANILA, FIRST DISTRICT",ERMITA,14.5753,120.981
 794,Bagtikan,Bagtikan St San Antonio Village Makati city,,NCR - National Capital Region,"NCR, FOURTH DISTRICT",CITY OF MAKATI,14.5625,121.011
 795,BF Resort II,Bf Resort Village Las Pinas City,,NCR - National Capital Region,"NCR, FOURTH DISTRICT",CITY OF LAS PIÑAS,14.4381,120.991
 796,San Fernando 4,Abad Santos St Poblacion San Fernando Pampanga,0948,REGION III (Central Luzon),PAMPANGA,CITY OF SAN FERNANDO (Capital),15.0466,120.692
 797,Old Balara,986 Tandang Sora Ave Brgy Old Balara Quezon City,0998,NCR - National Capital Region,"NCR, SECOND DISTRICT",QUEZON CITY,14.664,121.069
 798,C5 Damayan,Blk.51 Lot 8 Phase 2 brgy Pinagsam aTaguig City,,NCR - National Capital Region,"NCR, FOURTH DISTRICT",TAGUIG CITY,14.5265,121.056
 801,Riverbanks 2,A Bonifacio St Brgy Barangka Marikina City,3859639,NCR - National Capital Region,"NCR, SECOND DISTRICT",CITY OF MARIKINA,14.633,121.082
 802,Market Avenue,Market Avenue cor MH Del Pilar Pasig City,6420341,NCR - National Capital Region,"NCR, SECOND DISTRICT",CITY OF PASIG,14.5637,121.085
 805,East Avenue,NCPH Bldg Eastv Ave cor EDSA Pinyahan Quezon City,4359364,NCR - National Capital Region,"NCR, SECOND DISTRICT",QUEZON CITY,14.6332,121.045
 805,East Avenue,NCPH Bldg Eastv Ave cor EDSA Pinyahan Quezon City,4359364,NCR - National Capital Region,"NCR, SECOND DISTRICT",QUEZON CITY,14.6332,121.045
 806,Villaflor,National Road Poblacion Dagupan City Pangasinan,0922,REGION I (Ilocos Region),PANGASINAN,DAGUPAN CITY,16.0371,120.347
 807,Urdaneta 3,Mcarthur Highway Urdaneta City Pangasinan,0922,REGION I (Ilocos Region),PANGASINAN,CITY OF URDANETA,15.9723,120.571
 808,Binmaley,Poblacion Binmaley Pangasinan,0923,REGION I (Ilocos Region),PANGASINAN,BINMALEY,16.028,120.27
 809,Paliparan 2,Brgy Paliparan 3 Dasmarinas City,,REGION IV-A (CALABARZON),CAVITE,DASMARIÑAS,14.321,120.985
 810,Macabebe,Poblacion Macabebe Pampanga,0923,REGION III (Central Luzon),PAMPANGA,MACABEBE,14.908,120.716
 811,Tanauan 3,Pres Laurel Highway cor Molave St Tanauan Batangas,,REGION IV-A (CALABARZON),BATANGAS,CITY OF TANAUAN,14.1656,121.153
 813,Caltex Binan,A Mabini Road Bgry San Antonio Binan Laguna,,REGION IV-A (CALABARZON),LAGUNA,BIÑAN,14.3349,121.088
 814,Lian Batangas,JP Rizal St cor Kapitan Isko St Lian Batangas,,REGION IV-A (CALABARZON),BATANGAS,LIAN,14.0394,120.652
 815,Pila Highway,Brgy Labuin Pila Laguna,,REGION IV-A (CALABARZON),LAGUNA,PILA,14.2549,121.395
 817,Malinta 3,6 Gov Santiago St Malinta Valenzuela City,0942,NCR - National Capital Region,"NCR, THIRD DISTRICT",CITY OF VALENZUELA,14.6927,120.964
 818,Lucban 2,Brgy Tinamnam Lucban Quezon,,REGION IV-A (CALABARZON),QUEZON,LUCBAN,14.1116,121.561
 819,St Luke's 2,St Lukes Medical Bldg E Rodriguez Sr Quezon City,7230101,NCR - National Capital Region,"NCR, SECOND DISTRICT",QUEZON CITY,14.6222,121.024
 821,City Place Binondo,City Place BInondo Sta Elene St Binondo Manila,,NCR - National Capital Region,"NCR, CITY OF MANILA, FIRST DISTRICT",BINONDO,14.6048,120.972
 822,Palico 2,"Aguinaldo Hi-way, Palico IV, Imus Cavite",,REGION IV-A (CALABARZON),CAVITE,IMUS,14.4253,120.944
 823,Binalonan Crossing,McArthur Highway Binalonan Pangasinan,,REGION I (Ilocos Region),PANGASINAN,BINALONAN,16.0468,120.586
 824,St Aquinas Sto Tomas,Gen. Malvar Ave. Sto Tomas Batangas,,REGION IV-A (CALABARZON),BATANGAS,SANTO TOMAS,14.1081,121.141
 825,Lucena 3,Quezon Avenue Lucena City,,REGION IV-A (CALABARZON),QUEZON,LUCENA CITY (Capital),13.947,121.586
 826,Phoenix,Phoenix Lucena Maharlika Highway Lucena City,,REGION IV-A (CALABARZON),QUEZON,LUCENA CITY (Capital),13.9593,121.652
 827,Tagaytay City Market,Sta Rosa Road Brgy San Francisco Tagaytay City,,REGION IV-A (CALABARZON),CAVITE,TAGAYTAY CITY,14.1271,120.981
 828,Bay,Brgy Dila Bay Laguna,,REGION IV-A (CALABARZON),LAGUNA,BAY,14.1719,121.292
 829,Areza,Natioanl Highway Brgy Canlalay,,REGION IV-A (CALABARZON),LAGUNA,BIÑAN,14.3373,121.075
 830,Total Cut-cut,Rizal St cor Friendship Hiway Angeles Pampanga,0932,REGION III (Central Luzon),PAMPANGA,ANGELES CITY,15.1295,120.576
 831,Marcos Highway,Marcos Highway Brgy Bakakeng Baguio City,0943,CAR - Cordillera Administrative Region,BENGUET,BAGUIO CITY,16.401,120.592
 834,Remington hotel,"Ground Floor Shop 2, Remington Hotel, Newport City",,NCR - National Capital Region,"NCR, FOURTH DISTRICT",PASAY CITY,14.5179,121.019
 835,Banaue 2,Banawe St Brgy Josefa Quezon City,8613264,NCR - National Capital Region,"NCR, SECOND DISTRICT",QUEZON CITY,14.6238,121.008
 836,Torre Venecia,Timog Avenue cor Scout Santiago St Quezon City,3814091,NCR - National Capital Region,"NCR, SECOND DISTRICT",QUEZON CITY,14.636,121.029
 837,Tiaong Stopover,Tagpuan sa Villa Escudero Brgy Lalig Tiaong Quezon,,REGION IV-A (CALABARZON),QUEZON,TIAONG,13.9824,121.327
 838,Mariveles,Lakandula St P Burgos Poblacion Mariveles Bataan,9357538,REGION III (Central Luzon),BATAAN,MARIVELES,14.4342,120.486
 842,Naguillan Poblacion,Naguillan Road cor Rimando St Naguillan La Union,0920,REGION I (Ilocos Region),LA UNION,NAGUILIAN,16.53,120.393
 843,Mayapa 2,Mayapa Road Brgy Mayapa Calamba Laguna,,REGION IV-A (CALABARZON),LAGUNA,CITY OF CALAMBA,14.2115,121.124
 845,Plaridel 2,Banga 1 Plaridel Bulacan,0998,REGION III (Central Luzon),BULACAN,PLARIDEL,14.8808,120.867
 846,Tanza 3,Filinvest West Brgy Paradahan Tanza Cavite,,REGION IV-A (CALABARZON),CAVITE,TANZA,14.3251,120.86
 847,Alaminos,Across Nepo Mart Alaminos City Pangasinan,0922,REGION I (Ilocos Region),PANGASINAN,CITY OF ALAMINOS,16.1548,119.98
 851,Lopez,Maharlika highway cor San Isidro St Lopez Quezon,,REGION IV-A (CALABARZON),QUEZON,LOPEZ,14.0743,121.324
 852,Bucandala,Patindig Araw Alapan Road Bucandala Imus Cavite,,REGION IV-A (CALABARZON),CAVITE,IMUS,14.406,120.925
 853,Tayug,Poblacion TAyug Pangasinan,,REGION I (Ilocos Region),PANGASINAN,TAYUG,16.0233,120.748
 854,Naga 4,Liboton St. cor Jacob St. Naga City Camarines Sur,,REGION V (Bicol Region),CAMARINES SUR,NAGA CITY,13.634,123.19
 855,UERM,R Magsaysay Blvd Ext Quezon City,5221704,NCR - National Capital Region,"NCR, SECOND DISTRICT",QUEZON CITY,14.608,121.021
 856,Guimba,Salvador St Bargain St Guimba Nueva Ecija,,REGION III (Central Luzon),NUEVA ECIJA,GUIMBA,15.6594,120.769
 857,Dita (Margarita),Brgy Dita Sta Rosa City Laguna,,REGION IV-A (CALABARZON),LAGUNA,CITY OF SANTA ROSA,14.281,121.123
 859,Landayan,Brgy Landayan San Pedro Laguna,,REGION IV-A (CALABARZON),LAGUNA,SAN PEDRO,14.354,121.066
 863,Tanauan 4,"A Mabini Avenue, Tanauan City Batangas",,REGION IV-A (CALABARZON),BATANGAS,CITY OF TANAUAN,14.0837,121.146
 864,Legislative Bldg,Rizal St cor Hilario St Tarlac City,0920,REGION III (Central Luzon),TARLAC,CITY OF TARLAC (Capital),15.4866,120.589
 865,Perez,Inong Bldg Hugo Perez Drive Trece Martirez Cavite,,REGION IV-A (CALABARZON),CAVITE,TRECE MARTIRES CITY (Capital),14.2822,120.89
 866,Gumaca,Andres Bonifacio St cor JP Rizal St Gumaca Quezon,,REGION IV-A (CALABARZON),QUEZON,GUMACA,14.1333,121.432
 868,Armstrong Avenue,Armstrong Ave cor E Rodriguez Moonwalk Paranaque,,NCR - National Capital Region,"NCR, FOURTH DISTRICT",CITY OF PARAÑAQUE,14.4974,121.013
 870,Soho Central,Green Field District Mandaluyong City,3837245,NCR - National Capital Region,"NCR, SECOND DISTRICT",CITY OF MANDALUYONG,14.5793,121.055
 871,Almanza Uno,481 Real St Almanza 1 Las Piñas City,,NCR - National Capital Region,"NCR, FOURTH DISTRICT",CITY OF LAS PIÑAS,14.4349,121.011
 872,Total San Pablo,Maharlika Highway San Pablo City Laguna,,REGION IV-A (CALABARZON),LAGUNA,SAN PABLO CITY,14.071,121.303
 873,Lipa Cathedral,San Sebastian Cathedral Lipa City,,REGION IV-A (CALABARZON),BATANGAS,LIPA CITY,13.9407,121.164
 874,KIDNEY CENTER,East Ave Quezon City,0932,NCR - National Capital Region,"NCR, SECOND DISTRICT",QUEZON CITY,14.6472,121.048
 876,Magalang,Sta Cruz Magalang Pampanga,0933,REGION III (Central Luzon),PAMPANGA,MAGALANG,15.2136,120.659
 877,Red Planet Malate,1740 A Mabini St Malate Manila,,NCR - National Capital Region,"NCR, CITY OF MANILA, FIRST DISTRICT",MALATE,14.571,120.984
 878,Shell Diversion,Roxas Ave Triangulo Naga City Camarines Sur,,REGION V (Bicol Region),CAMARINES SUR,NAGA CITY,13.6154,123.192
 880,Alfonso,Mabini St Poblacion ll Alfonso Cavite,,REGION IV-A (CALABARZON),CAVITE,ALFONSO,14.1393,120.855
 883,Madapdap,San Fernando Ave Madapdap Pampanga,0942,REGION III (Central Luzon),PAMPANGA,CITY OF SAN FERNANDO (Capital),15.2188,120.611
 885,San Fabian,Quezon Highway San Fabian Pangasinan,0925,REGION I (Ilocos Region),PANGASINAN,SAN FABIAN,16.1137,120.398
 886,Libmanan,Poblacion St cor Bigaon St Libamanan Camarines Sur,,REGION V (Bicol Region),CAMARINES SUR,LIBMANAN,13.6937,123.06
 887,San Antonio,San Antonio San Narciso Road Poblacion Zambales,0923,REGION III (Central Luzon),ZAMBALES,SAN NARCISO,14.9483,120.089
 888,La Union 2 (DMMMSU),McArthur Hiway Sevilla San Fernando City La Union,0923,REGION I (Ilocos Region),LA UNION,CITY OF SAN FERNANDO (Capital),16.6066,120.318
 889,Eastern Petroleum,Argonaut Highway cor Rizal Ave SBMA Zambales,2500919,REGION III (Central Luzon),ZAMBALES,SUBIC,14.8227,120.298
 890,Lima Tech (Malvar),Santiago JP Laurel Highway Malvar Batangas,,REGION IV-A (CALABARZON),BATANGAS,MALVAR,14.0085,121.166
 893,Famy,Brgy Calumpang Famy Laguna,,REGION IV-A (CALABARZON),LAGUNA,FAMY,14.4356,121.449
 894,Macabling,Brgy Macabling Sta Rosa Laguna,,REGION IV-A (CALABARZON),LAGUNA,CITY OF SANTA ROSA,14.2991,121.099
 895,Cuenca,Poblacion 1 National Highway Cuenca Batangas,,REGION IV-A (CALABARZON),BATANGAS,CUENCA,13.8982,121.051
 896,Katipunan,Esteban Abada St cor Rosa Alvero St Loyola Heigths,4267186,NCR - National Capital Region,"NCR, SECOND DISTRICT",CITY OF PASIG,14.6334,121.073
 897,Lucena 4,ML Tagarao St Brgy Iyam Lucena City,,REGION IV-A (CALABARZON),QUEZON,LUCENA CITY (Capital),13.9344,121.604
 898,San Carlos 2,33 Rizal St San Carlos City Pangasinan,0932,REGION I (Ilocos Region),PANGASINAN,SAN CARLOS CITY,15.9296,120.351
 899,Sotto,Unit 117 Sotto Yuvienco Bldg cor Gen Luna Ermita,,NCR - National Capital Region,"NCR, CITY OF MANILA, FIRST DISTRICT",ERMITA,14.5818,120.986
 900,Catanauan,Poblacion 10 Catanauan Quezon,,REGION IV-A (CALABARZON),QUEZON,CATANAUAN,13.5948,122.323
 902,Sitio Gitna,Gen Luis St P Dela Cruz St Brgy Kaybiga Caloocan,0998,NCR - National Capital Region,"NCR, THIRD DISTRICT",CALOOCAN CITY,14.7199,121.015
 903,OYG,B MEndoza St San Fernando Pampanga,0932,REGION III (Central Luzon),PAMPANGA,CITY OF SAN FERNANDO (Capital),15.0317,120.689
 904,Langkaan,cor langkaan drive Langkaan Dasmariñas Cavite,,REGION IV-A (CALABARZON),CAVITE,DASMARIÑAS,14.294,120.939
 906,Aseana One,Aseana One BRADCO Ave Parañaque,,NCR - National Capital Region,"NCR, FOURTH DISTRICT",CITY OF PARAÑAQUE,14.5295,120.989
 908,Dinalupihan,3 San Ramon Highway Dinalupihan Bataan,4811820,REGION III (Central Luzon),BATAAN,DINALUPIHAN,14.8679,120.461
 909,Plaza 66,Plaza 66 New Port City,,NCR - National Capital Region,"NCR, FOURTH DISTRICT",PASAY CITY,14.5245,121.013
 911,Balayan 2,Antorcha St cor Paz St Balayan Batangas,,REGION IV-A (CALABARZON),BATANGAS,BALAYAN,13.9394,120.731
 914,Nabua,"San Roque Poblacion, Nabua Camarines Sur",,REGION V (Bicol Region),CAMARINES SUR,NABUA,13.4067,123.373
 915,Alaminos Laguna,Del Pilar st Alaminos Laguna,,REGION IV-A (CALABARZON),LAGUNA,ALAMINOS,14.0654,121.247
 915,Alaminos Laguna,Del Pilar st Alaminos Laguna,,REGION IV-A (CALABARZON),LAGUNA,ALAMINOS,14.0654,121.247
 916,GMA 2,Congressional Ave Poblacion GMA Cavite,,REGION IV-A (CALABARZON),CAVITE,GEN. MARIANO ALVAREZ,14.3027,121.012
 919,San Felipe,Poblacion San Felipe Zambales,0942,REGION III (Central Luzon),ZAMBALES,SAN FELIPE,15.0659,120.068
 920,Malvar Poblacion,Poblacion Malvar Batangas,,REGION IV-A (CALABARZON),BATANGAS,MALVAR,14.045,121.158
 922,Angono Medics,Quezon Ave.Highway Brgy San Isidro Angono Rizal,0922,REGION IV-A (CALABARZON),RIZAL,ANGONO,14.5313,121.153
 924,Tawilisan,Brgy Bihis Tawilisan Taal Batangas,,REGION IV-A (CALABARZON),BATANGAS,TAAL,13.8943,120.93
 925,Tuy,"Poblacion, Tuy, Batangas",,REGION IV-A (CALABARZON),BATANGAS,TUY,14.0207,120.729
 926,Sangley Point,Dra. Salamanca St. Sangley Point Cavite City,,REGION IV-A (CALABARZON),CAVITE,CAVITE CITY,14.4899,120.903
 927,Dasma 4,Brgy San Juan Dasmariñas Cavite,,REGION IV-A (CALABARZON),CAVITE,DASMARIÑAS,14.3403,120.949
 929,Calauan,Brgy Kanluran Calauan Laguna,,REGION IV-A (CALABARZON),LAGUNA,CALAUAN,14.1503,121.318
 930,Caltex Sto. Tomas,Maharlika Highway  San Antonio Sto Tomas Batangas,,REGION IV-A (CALABARZON),BATANGAS,SANTO TOMAS,14.109,121.147
 937,VRP Sierra Madre,Sierra Madre  Brgy Highway Hills Mandaluyong City,5702528,NCR - National Capital Region,"NCR, SECOND DISTRICT",CITY OF MANDALUYONG,14.577,121.05
 938,Ibaan,J Pastor st Ibaan Batangas,,REGION IV-A (CALABARZON),BATANGAS,IBAAN,13.8179,121.134
 939,Samal Bataan,Brgy Poblacion Samal Bataan,0923,REGION III (Central Luzon),BATAAN,SAMAL,14.7682,120.54
 941,Sariaya 2,Maharlika Highway Brsy Santo Cristo Sariaya,,REGION IV-A (CALABARZON),QUEZON,SARIAYA,13.9323,121.483
 942,Munoz Nueva Ecija,Delos Santos St Science City Munoz Nueva Ecija,0923,REGION III (Central Luzon),NUEVA ECIJA,SCIENCE CITY OF MUÑOZ,15.712,120.904
 951,San Agustin,Brgy San Agustin Sto Tomas Batangas,,REGION IV-A (CALABARZON),BATANGAS,SANTO TOMAS,14.0661,121.144
 952,Montalban Burgos,JP rizal cor. Montana  Brgy Burgos Montalban Rizal,0932,REGION IV-A (CALABARZON),RIZAL,RODRIGUEZ (MONTALBAN),14.7151,121.136
 953,San Jose Batangas,Brgy Taysan San Jose Batangas,,REGION IV-A (CALABARZON),BATANGAS,SAN JOSE,13.8784,121.104
 954,Matatalaib,"Sitio Buno, Matatalaib Tarlac City",0933,REGION III (Central Luzon),TARLAC,CITY OF TARLAC (Capital),15.4977,120.601
 955,Victoria,"Tarlac Victoria Highway, Victoria Tarlac",0932,REGION III (Central Luzon),TARLAC,VICTORIA,15.577,120.683
 956,Candaba,Tarlac Victoria Highway Victoria Tarlac,0925,REGION III (Central Luzon),PAMPANGA,CANDABA,15.0928,120.828
 957,Bamban,McArthur Highway Bamban Crossing Bamban Tarlac,0943,REGION III (Central Luzon),TARLAC,BAMBAN,15.2727,120.57
 959,Jaen,San Isidro Jaen Road Jaen Nueva Ecija,092,REGION III (Central Luzon),NUEVA ECIJA,JAEN,15.3388,120.912
 961,La Paz,Concepcion Road Brgy San Isidro La Paz Tarlac,0932,REGION III (Central Luzon),TARLAC,LA PAZ,15.443,120.729
 962,Masapang,National Highway Brgy Masapang Victoria Laguna,,REGION IV-A (CALABARZON),LAGUNA,VICTORIA,14.194,121.34
 963,Bayani Road,Bayani road cor Diego Silang Taguig Cuty,,NCR - National Capital Region,"NCR, FOURTH DISTRICT",TAGUIG CITY,14.5256,121.043
 965,Siniloan,L De Leon St Brgy Acevida Siniloan Laguna,,REGION IV-A (CALABARZON),LAGUNA,SINILOAN,14.4156,121.447
 966,Yellow Building,south satation Alabang muntinlupa,,NCR - National Capital Region,"NCR, FOURTH DISTRICT",CITY OF MUNTINLUPA,14.4207,121.043
 969,Entec Bldg.,Don Juan Nepomuceno Ave Angeles Pampanga,4580983,REGION III (Central Luzon),PAMPANGA,ANGELES CITY,15.1352,120.587
 970,Orani Rural Bank,Poblacion Brgy Centro 1 Orani Bataan,6350611,REGION III (Central Luzon),BATAAN,ORANI,14.8009,120.536
 971,Pila Poblacion,Rizal St Sta Clara Sur Pila Laguna,,REGION IV-A (CALABARZON),LAGUNA,PILA,14.2066,121.328
 973,LP District Hospital,Cera Ave Brgy Pulang Lupa Las Piñas City,,NCR - National Capital Region,"NCR, FOURTH DISTRICT",CITY OF LAS PIÑAS,14.4714,120.974
 974,Splendor Place,Splendor Place J Nakpil St Bocobo St Malate Manila,,NCR - National Capital Region,"NCR, CITY OF MANILA, FIRST DISTRICT",MALATE,14.5716,120.986
 976,San Vicente,Brgy Banay-banay Lipa City Batangas,,REGION IV-A (CALABARZON),BATANGAS,LIPA CITY,13.9326,121.115
 977,Pansol 2,National Highway Bagong Kalsada Calamba Laguna,,REGION IV-A (CALABARZON),LAGUNA,CITY OF CALAMBA,14.173,121.2
 978,NAIC 2,A.Soriano Highway Naic Cavite,,REGION IV-A (CALABARZON),CAVITE,NAIC,14.3267,120.775
 979,Phoenix Bacoor,Hawaii St Brgy Salinas Bacoor Cavite,,REGION IV-A (CALABARZON),CAVITE,BACOOR,14.4373,120.949
 980,Legazpi 1,Lapu Lapu St cor Quezon Ave Legaspi City,,REGION V (Bicol Region),ALBAY,LEGAZPI CITY (Capital),13.1465,123.754
 981,LB Square,Lopez drive Batong Malake Los Baños Laguna,,REGION IV-A (CALABARZON),LAGUNA,LOS BAÑOS,14.1588,121.231
 982,RM Olongapo,RM centerpoint Bldg  Magsaysay Drive Olongapo City,2221424,REGION III (Central Luzon),ZAMBALES,OLONGAPO CITY,14.8308,120.281
 983,Bonifacio Technology Center (BTC),Bonifacio Technology Cente rGlobal City Taguig,,NCR - National Capital Region,"NCR, FOURTH DISTRICT",TAGUIG CITY,14.5546,121.045
 985,Capitol Medical Center,Scout Magbanua Timog Quezon City,4049342,NCR - National Capital Region,"NCR, SECOND DISTRICT",QUEZON CITY,14.6344,121.023
 986,San Sebastian College,Mendiola Square 2144-46 Claro M.Recto Manila,,NCR - National Capital Region,"NCR, CITY OF MANILA, FIRST DISTRICT",SAMPALOC,14.6004,120.991
 987,Manila Cathedral,GF Ferlaw Building Cabildo St Intramuros Manila,,NCR - National Capital Region,"NCR, CITY OF MANILA, FIRST DISTRICT",INTRAMUROS,14.591,120.974
 988,Ongpin,1043 Ongpin St cor Gonzalo Puyat Manila City,,NCR - National Capital Region,"NCR, CITY OF MANILA, FIRST DISTRICT",SANTA CRUZ,14.6007,120.98
 992,RL Mall,Quirino Highway Brgy Guolod Novaliches,0998,NCR - National Capital Region,"NCR, SECOND DISTRICT",QUEZON CITY,14.7214,121.04
 993,San Felix,Sto Tomas Batangas,,REGION IV-A (CALABARZON),BATANGAS,SANTO TOMAS,14.0775,121.144
 996,Caltex Pagbilao,Brgy Bukal Poblacion Pagbilao Quezon,,REGION IV-A (CALABARZON),QUEZON,PAGBILAO,13.9711,121.681
 997,BF Almanza,Aragon Bldg Cardinal St BF Almanza Las Piñas City,,NCR - National Capital Region,"NCR, FOURTH DISTRICT",CITY OF LAS PIÑAS,14.4304,121.015
 998,Mambog,New Molino Blvd Bacoor Cavite,,REGION IV-A (CALABARZON),CAVITE,BACOOR,14.4235,120.965
 1003,Tiaong 3,National Highway Lusacan Tiaong Quezon Province,,REGION IV-A (CALABARZON),QUEZON,TIAONG,13.9528,121.344
 1008,Alangilan,Brgy Alangilan Batangas City,,REGION IV-A (CALABARZON),BATANGAS,BATANGAS CITY (Capital),13.788,121.069
 1009,Lyceum Alabang,Lyceum Alabang Brgy Tunasan Muntinlupa City,,NCR - National Capital Region,"NCR, FOURTH DISTRICT",CITY OF MUNTINLUPA,14.3733,121.048
 1010,Masinloc,National Hi-way Masinloc Poblacion Zambales,0922,REGION III (Central Luzon),ZAMBALES,MASINLOC,15.5387,119.95
 1012,Sta. Rosa 3,F reyes St Balibago Sta Rosa Laguna,,REGION IV-A (CALABARZON),LAGUNA,CITY OF SANTA ROSA,14.2927,121.1
 1013,Batac City Proper,Batac College  Batac City Ilocos Norte,0933,REGION I (Ilocos Region),ILOCOS NORTE,CITY OF BATAC,18.0554,120.565
 1015,Alpha land Makati Mall,7232 Ayala Ave Exit Malugay St Makati City,,NCR - National Capital Region,"NCR, FOURTH DISTRICT",CITY OF MAKATI,14.5624,121.016
 1016,Clark ODE County,C M recto Highway Clark Freeport Zone Pampanga,0947,REGION III (Central Luzon),PAMPANGA,ANGELES CITY,15.1953,120.534
 1017,World Citi,Aurora Blvd Cubao Quezon City,,NCR - National Capital Region,"NCR, SECOND DISTRICT",QUEZON CITY,14.6273,121.063
 1018,Daet 2,Vinzon Avenue Daet Camarines Norte,,REGION V (Bicol Region),CAMARINES NORTE,DAET (Capital),14.1239,122.943
 1019,Cabuyao 3,Brgy. Banay Banay Cabuyao Laguna,,REGION IV-A (CALABARZON),LAGUNA,CABUYAO,14.2561,121.128
 1020,St. Louis College,Mc Arthur Highway San Fernando La-Union,09420000,REGION I (Ilocos Region),LA UNION,CITY OF SAN FERNANDO (Capital),16.6363,120.312
 1023,Cab Central Terminal,Circumferential Road Cabanatuan City Nueva Ecija,,REGION III (Central Luzon),NUEVA ECIJA,CABANATUAN CITY,15.4721,120.969
 1025,Vigan Landmark,Vigan Landmark Building  Jose singson Vigan City,092500,REGION I (Ilocos Region),ILOCOS SUR,CITY OF VIGAN (Capital),17.5686,120.386
 1026,Sumacab Este,Maharlika   Sumacab Este Cabanatuan Nueva Ecija,0912,REGION III (Central Luzon),NUEVA ECIJA,CABANATUAN CITY,15.4443,120.944
 1027,Candon City Poblacion,Ilocos Sur Samonte Road Candon City Ilocos Sur,0933,REGION I (Ilocos Region),ILOCOS SUR,CITY OF CANDON,17.1925,120.447
 1031,Sta. Rosa 4,Brgy Kanluran Sta Rosa Laguna,,REGION IV-A (CALABARZON),LAGUNA,CITY OF SANTA ROSA,14.3136,121.112
 1033,San Isidro N.E,Poblacion San Isidro Nueva Ecija,0923,REGION III (Central Luzon),NUEVA ECIJA,SAN ISIDRO,15.3091,120.907
 1034,Calamba 6,Brgy Parian cor Lawa Road Calamba City Laguna,,REGION IV-A (CALABARZON),LAGUNA,CITY OF CALAMBA,14.2023,121.147
 1035,Canlubang,Kapayapaan Vill. Canlubang Calamba Laguna,,REGION IV-A (CALABARZON),LAGUNA,CITY OF CALAMBA,14.2078,121.099
 1036,Sta.Rosa 5,Amihan Subd. Tagapo Sta Rosa Laguna,,REGION IV-A (CALABARZON),LAGUNA,CITY OF SANTA ROSA,14.3176,121.106
 1037,Brixton D'Ace Plaza,United Ave cor Brixton St Pioneer Pasig City,6544352,NCR - National Capital Region,"NCR, SECOND DISTRICT",CITY OF PASIG,14.5735,121.059
 1038,Total Lucena,National Highway Lucena City Quezon Province,,REGION IV-A (CALABARZON),QUEZON,LUCENA CITY (Capital),13.9413,121.624
 1039,Bangar,National highway Poblacion La-Union,0932,REGION I (Ilocos Region),LA UNION,BANGAR,16.8938,120.424
 1041,Pureza 2,350 Pureza St Sta Mesa Manila,,NCR - National Capital Region,"NCR, CITY OF MANILA, FIRST DISTRICT",SAMPALOC,14.6005,121.005
 1042,Espeleta,Avenida Rizal St Espeleta Imus Cavite,,REGION IV-A (CALABARZON),CAVITE,IMUS,14.3962,120.968
 1043,New York Residences,901 Leon Guinto St cor Estrada St Malate,,NCR - National Capital Region,"NCR, CITY OF MANILA, FIRST DISTRICT",MALATE,14.5648,120.995
 1044,Liliw Poblacion,Gat Tayaw St Liliw Laguna,,REGION IV-A (CALABARZON),LAGUNA,LILIW,14.1347,121.42
 1051,California Village,Katipunan St California  San Bartolome Quezon City,0998,NCR - National Capital Region,"NCR, SECOND DISTRICT",QUEZON CITY,14.7046,121.022
 1052,Canlubang Exit,National Highway Brgy Mayapa Calamba Laguna,,REGION IV-A (CALABARZON),LAGUNA,CITY OF CALAMBA,14.2117,121.128
 1053,Pabalan,Pabalan St Calamba City Laguna,,REGION IV-A (CALABARZON),LAGUNA,CITY OF CALAMBA,14.2114,121.165
 1054,Grotto Vista,Tungkong Mangga Road Graceville Tungko  Bulacan,0933,REGION III (Central Luzon),BULACAN,SANTA MARIA,14.814,121.045
 1056,Calaca,Brgy Poblacion Calaca Batangas,,REGION IV-A (CALABARZON),BATANGAS,CALACA,13.9335,120.814
 1057,AMC,Rizal  Burgos St San Nicolas Angeles City Pampanga,0933,REGION III (Central Luzon),PAMPANGA,ANGELES CITY,15.1409,120.589
 1058,Silang,M H Del Pilar St Poblacion Silang Cavite,,REGION IV-A (CALABARZON),CAVITE,SILANG,14.2237,120.973
 1059,San Mateo 2,Gen Luna Ave Brgy Ampid San Mateo Rizal,0942,REGION IV-A (CALABARZON),RIZAL,SAN MATEO,14.6829,121.115
 1061,Kingspoint (Sauyo),Kingspoint St cor Quirino Highway Quezon City,,NCR - National Capital Region,"NCR, SECOND DISTRICT",QUEZON CITY,14.6931,121.03
 1062,Gerona Poblacion,McArthur Highway Brgy Poblacion Gerona Tarlac,0923,REGION III (Central Luzon),TARLAC,GERONA,15.6063,120.598
 1064,West Lake Med,National Highway Brgy Nueva San Pedro Laguna,,REGION IV-A (CALABARZON),LAGUNA,SAN PEDRO,14.347,121.066
 1067,Caltex Shaw Pioneer,Pioneer Shaw Blvd Mandaluyong City,7949133,NCR - National Capital Region,"NCR, SECOND DISTRICT",CITY OF MANDALUYONG,14.5759,121.059
 1068,Caltex FTI-E Service Road,FTI Taguig,,NCR - National Capital Region,"NCR, FOURTH DISTRICT",TAGUIG CITY,14.507,121.036
 1069,Montillano 1,Montillano cor. Ilaya Brgy Alabang Muntinlupa,,NCR - National Capital Region,"NCR, FOURTH DISTRICT",CITY OF MUNTINLUPA,14.419,121.05
 1070,Sta. Rita Guiguinto,McArthur Highway Sta Rita Guiguinto Bulacan,0943,REGION III (Central Luzon),BULACAN,GUIGUINTO,14.8542,120.861
 1076,Fortunata,Located at Dr A Santos Ave Sucat Parañaque,,NCR - National Capital Region,"NCR, FOURTH DISTRICT",CITY OF PARAÑAQUE,14.4712,121.008
 1077,E- Luxury One,"5077 P. Burgos st., Poblacion Makati City",,NCR - National Capital Region,"NCR, FOURTH DISTRICT",CITY OF MAKATI,14.5663,121.031
 1079,Mabini Batangas,Poblacion Mabini Batangas,,REGION IV-A (CALABARZON),BATANGAS,MABINI,13.749,120.941
 1080,CPI Soldier's Hill,National Highway  Soldiers Hills Muntinlupa City,,NCR - National Capital Region,"NCR, FOURTH DISTRICT",CITY OF MUNTINLUPA,14.3982,121.046
 1082,Calumpit,Brgy Bulangao Calumpit Bulacan,2025715,REGION III (Central Luzon),BULACAN,CALUMPIT,14.9152,120.766
 1083,New Era,Central Ave New Era Quezon City,9215974,NCR - National Capital Region,"NCR, SECOND DISTRICT",QUEZON CITY,14.662,121.059
 1084,San Matias,McArthur Hi way San Matias Sto Tomas Pampanga,,REGION III (Central Luzon),PAMPANGA,SANTO TOMAS,15.0081,120.715
 1086,Solemare,Solemare Parksuites Brado Ave Parañaque City,,NCR - National Capital Region,"NCR, FOURTH DISTRICT",CITY OF PARAÑAQUE,14.5302,120.988
 1087,Legazpi 2,Rizal Street Brgy Ems Barrio Legazpi City,,REGION V (Bicol Region),ALBAY,LEGAZPI CITY (Capital),13.1439,123.726
 1088,Mataas na Kahoy,Brgy Poblacion Mataas na kahoy Batangas,,REGION IV-A (CALABARZON),BATANGAS,MATAASNAKAHOY,13.9577,121.113
 1089,Paoay,Centro Marcelino San Pedro Paoay Ilocos Norte,0923,REGION I (Ilocos Region),ILOCOS NORTE,PAOAY,18.0624,120.52
 1090,Imus 5,Pasong Buaya 2 Imus Cavite,,REGION IV-A (CALABARZON),CAVITE,IMUS,14.3919,120.968
 1091,CPI Guagua,GSO Road cor San Matias Guagua Pampanga,0923,REGION III (Central Luzon),PAMPANGA,GUAGUA,14.9645,120.632
 1092,Cabuyao 4,Brgy Pulo Cabuyao Laguna,,REGION IV-A (CALABARZON),LAGUNA,CABUYAO,14.2462,121.129
 1093,Victoria Laguna,Brgy Nanyaha Poblacion Victoria Laguna,,REGION IV-A (CALABARZON),LAGUNA,VICTORIA,14.228,121.328
 1096,Libertad Aurora,Antonio Arnaiz cor Aurora St Pasay City,,NCR - National Capital Region,"NCR, FOURTH DISTRICT",PASAY CITY,14.5484,121.004
 1097,CPI Aurora Blvd,Aurora Blvd J P Rizal St Brgy Marilag Quezon City,,NCR - National Capital Region,"NCR, SECOND DISTRICT",QUEZON CITY,14.6292,121.07
 1098,Angat Bulacan,Fernando Street Angat Bulacan,7970328,REGION III (Central Luzon),BULACAN,ANGAT,14.9272,121.029
 1100,PTT Osmena,South Superhighway Makati City,,NCR - National Capital Region,"NCR, FOURTH DISTRICT",CITY OF MAKATI,14.5459,121.014
 1101,OK Plaza,Victory Liner compound Monumento Caloocan,0921,NCR - National Capital Region,"NCR, THIRD DISTRICT",CALOOCAN CITY,14.6563,120.982
